[
 {
   "Country": "臺北市",
   "City": "大安區",
   "Village": "小宇里",
   "Name": "管理學院(MA)-2F男廁",
   "Address": "106台北市大安區基隆路四段43號",
   "Administration": "臺灣科技大學管理學院",
   "Latitude": "25.012319",
   "Longitude": "121.541310",
   "Grade": "優等級",
   "Type": "男廁",
   "Type2": "學校"
 },
 {
   "Country": "臺北市",
   "City": "大安區",
   "Village": "小宇里",
   "Name": "管理學院(MA)-2F女廁",
   "Address": "106台北市大安區基隆路四段43號",
   "Administration": "臺灣科技大學管理學院",
   "Latitude": "25.012296",
   "Longitude": "121.541321",
   "Grade": "優等級",
   "Type": "女廁",
   "Type2": "學校"
 },
 {
   "Country": "臺北市",
   "City": "大安區",
   "Village": "小宇里",
   "Name": "管理學院(MA)-3F男女廁",
   "Address": "106台北市大安區基隆路四段43號",
   "Administration": "臺灣科技大學管理學院",
   "Latitude": "25.012297",
   "Longitude": "121.541271",
   "Grade": "優等級",
   "Type": "男女廁",
   "Type2": "學校"
 },
 {
   "Country": "臺北市",
   "City": "大安區",
   "Village": "小宇里",
   "Name": "工程二館 1F",
   "Address": "106台北市大安區基隆路四段43號",
   "Administration": "臺灣科技大學工程二館",
   "Latitude": "25.012413",
   "Longitude": "121.540670",
   "Grade": "優等級",
   "Type": "男女廁",
   "Type2": "學校"
 },
 {
   "Country": "臺北市",
   "City": "大安區",
   "Village": "小宇里",
   "Name": "國際大樓(IB) 2~12F(男廁)",
   "Address": "106台北市大安區基隆路四段43號",
   "Administration": "臺灣科技大學國際大樓",
   "Latitude": "25.013026",
   "Longitude": "121.540046",
   "Grade": "優等級",
   "Type": "男廁",
   "Type2": "學校"
 },
 {
   "Country": "臺北市",
   "City": "大安區",
   "Village": "小宇里",
   "Name": "國際大樓(IB) 2~12F(女廁)",
   "Address": "106台北市大安區基隆路四段43號",
   "Administration": "臺灣科技大學國際大樓",
   "Latitude": "25.013059",
   "Longitude": "121.540067",
   "Grade": "優等級",
   "Type": "女廁",
   "Type2": "學校"
 },
 {
   "Country": "臺北市",
   "City": "大安區",
   "Village": "小宇里",
   "Name": "國際大樓(IB) 2~12F(男廁)",
   "Address": "106台北市大安區基隆路四段43號",
   "Administration": "臺灣科技大學國際大樓",
   "Latitude": "25.012650",
   "Longitude": "121.540377",
   "Grade": "優等級",
   "Type": "男廁",
   "Type2": "學校"
 },
 {
   "Country": "臺北市",
   "City": "大安區",
   "Village": "小宇里",
   "Name": "國際大樓(IB) 2~12F(女廁)",
   "Address": "106台北市大安區基隆路四段43號",
   "Administration": "臺灣科技大學國際大樓",
   "Latitude": "25.012663",
   "Longitude": "121.540399",
   "Grade": "優等級",
   "Type": "女廁",
   "Type2": "學校"
 },
 {
   "Country": "臺北市",
   "City": "大安區",
   "Village": "小宇里",
   "Name": "研揚大樓(TR)(假日不開放) 2~11F(男廁)",
   "Address": "106台北市大安區基隆路四段43號",
   "Administration": "臺灣科技大學研揚大樓",
   "Latitude": "25.014897",
   "Longitude": "121.543024",
   "Grade": "優等級",
   "Type": "男廁",
   "Type2": "學校"
 },
 {
   "Country": "臺北市",
   "City": "大安區",
   "Village": "小宇里",
   "Name": "研揚大樓(TR)(假日不開放) 2~11F(女廁)",
   "Address": "106台北市大安區基隆路四段43號",
   "Administration": "臺灣科技大學研揚大樓",
   "Latitude": "25.015246",
   "Longitude": "121.542635",
   "Grade": "優等級",
   "Type": "女廁",
   "Type2": "學校"
 },
 {
   "Country": "臺北市",
   "City": "大安區",
   "Village": "小宇里",
   "Name": "工程一館 1F(男廁)",
   "Address": "106台北市大安區基隆路四段43號",
   "Administration": "臺灣科技大學工程一館",
   "Latitude": "25.013332",
   "Longitude": "121.541852",
   "Grade": "優等級",
   "Type": "女廁",
   "Type2": "學校"
 },
 {
   "Country": "臺北市",
   "City": "大安區",
   "Village": "小宇里",
   "Name": "工程一館 1F(女廁)",
   "Address": "106台北市大安區基隆路四段43號",
   "Administration": "臺灣科技大學工程一館",
   "Latitude": "25.013645",
   "Longitude": "121.542203",
   "Grade": "優等級",
   "Type": "女廁",
   "Type2": "學校"
 },
 {
   "Country": "臺北市",
   "City": "大安區",
   "Village": "小宇里",
   "Name": "綜合研究大樓(RB) 3~9F(男廁)",
   "Address": "106台北市大安區基隆路四段43號",
   "Administration": "臺灣科技大學綜合研究大樓",
   "Latitude": "25.014292",
   "Longitude": "121.541358",
   "Grade": "優等級",
   "Type": "男廁",
   "Type2": "學校"
 },
 {
   "Country": "臺北市",
   "City": "大安區",
   "Village": "小宇里",
   "Name": "綜合研究大樓(RB) 3~9F(女廁)",
   "Address": "106台北市大安區基隆路四段43號",
   "Administration": "臺灣科技大學綜合研究大樓",
   "Latitude": "25.014320",
   "Longitude": "121.541423",
   "Grade": "優等級",
   "Type": "女廁",
   "Type2": "學校"
 },
 {
   "Country": "臺北市",
   "City": "大安區",
   "Village": "小宇里",
   "Name": "綜合研究大樓105會議廳旁(RB-105) 1F(男廁)",
   "Address": "106台北市大安區基隆路四段43號",
   "Administration": "臺灣科技大學綜合研究大樓",
   "Latitude": "25.014261",
   "Longitude": "121.541644",
   "Grade": "優等級",
   "Type": "女廁",
   "Type2": "學校"
 },
 {
   "Country": "臺北市",
   "City": "大安區",
   "Village": "小宇里",
   "Name": "綜合研究大樓105會議廳旁(RB-105) 1F(女廁)",
   "Address": "106台北市大安區基隆路四段43號",
   "Administration": "臺灣科技大學綜合研究大樓",
   "Latitude": "25.014244",
   "Longitude": "121.541620",
   "Grade": "優等級",
   "Type": "女廁",
   "Type2": "學校"
 },
 {
   "Country": "臺北市",
   "City": "大安區",
   "Village": "小宇里",
   "Name": "第三教學大樓(T3) 奇數樓為男廁 偶數樓為女廁",
   "Address": "106台北市大安區基隆路四段43號",
   "Administration": "臺灣科技大學第三教學大樓",
   "Latitude": "25.013386",
   "Longitude": "121.542938",
   "Grade": "優等級",
   "Type": "男女廁",
   "Type2": "學校"
 },
 {
   "Country": "臺北市",
   "City": "大安區",
   "Village": "小宇里",
   "Name": "第四教學大樓(T4) (男廁)",
   "Address": "106台北市大安區基隆路四段43號",
   "Administration": "臺灣科技大學第四教學大樓",
   "Latitude": "25.014024",
   "Longitude": "121.541923",
   "Grade": "優等級",
   "Type": "女廁",
   "Type2": "學校"
 },
 {
   "Country": "臺北市",
   "City": "大安區",
   "Village": "小宇里",
   "Name": "第四教學大樓(T4) (女廁)",
   "Address": "106台北市大安區基隆路四段43號",
   "Administration": "臺灣科技大學第四教學大樓",
   "Latitude": "25.013996",
   "Longitude": "121.541899",
   "Grade": "優等級",
   "Type": "女廁",
   "Type2": "學校"
 },
 {
   "Country": "臺北市",
   "City": "大安區",
   "Village": "小宇里",
   "Name": "社團大樓 1F(男廁)",
   "Address": "106台北市大安區基隆路四段43號",
   "Administration": "臺灣科技大學社團大樓",
   "Latitude": "25.013844",
   "Longitude": "121.542961",
   "Grade": "優等級",
   "Type": "女廁",
   "Type2": "學校"
 },
 {
   "Country": "臺北市",
   "City": "大安區",
   "Village": "小宇里",
   "Name": "社團大樓 1F(女廁)",
   "Address": "106台北市大安區基隆路四段43號",
   "Administration": "臺灣科技大學社團大樓",
   "Latitude": "25.013806",
   "Longitude": "121.542935",
   "Grade": "優等級",
   "Type": "女廁",
   "Type2": "學校"
 },
 {
   "Country": "臺北市",
   "City": "大安區",
   "Village": "小宇里",
   "Name": "體育館 2F(籃球場後面)",
   "Address": "106台北市大安區基隆路四段43號",
   "Administration": "臺灣科技大學體育館",
   "Latitude": "25.014327",
   "Longitude": "121.543464",
   "Grade": "優等級",
   "Type": "女廁",
   "Type2": "學校"
 },
 {
   "Country": "臺北市",
   "City": "大安區",
   "Village": "小宇里",
   "Name": "舊總圖書館 1F西側廁所(假日不開放)",
   "Address": "10617台北市大安區羅斯福路四段1號",
   "Administration": "臺灣大學舊總圖書館",
   "Latitude": "25.017571",
   "Longitude": "121.534935",
   "Grade": "優等級",
   "Type": "殘障廁",
   "Type2": "學校"
 },
 {
   "Country": "臺北市",
   "City": "大安區",
   "Village": "小宇里",
   "Name": "新生教學館 1F廁所",
   "Address": "10617台北市大安區羅斯福路四段1號",
   "Administration": "臺灣大學新生教學館",
   "Latitude": "25.019777",
   "Longitude": "121.538632",
   "Grade": "優等級",
   "Type": "殘障廁",
   "Type2": "學校"
 },
 {
   "Country": "臺北市",
   "City": "大安區",
   "Village": "小宇里",
   "Name": "體育館 1F廁所",
   "Address": "10617台北市大安區羅斯福路四段1號",
   "Administration": "臺灣大學體育館",
   "Latitude": "25.019844",
   "Longitude": "121.536286",
   "Grade": "優等級",
   "Type": "殘障廁",
   "Type2": "學校"
 },
 {
   "Country": "臺北市",
   "City": "大安區",
   "Village": "小宇里",
   "Name": "綜合體育館 1F廁所",
   "Address": "10617台北市大安區羅斯福路四段1號",
   "Administration": "臺灣大學綜合體育館",
   "Latitude": "25.021876",
   "Longitude": "121.535449",
   "Grade": "優等級",
   "Type": "殘障廁",
   "Type2": "學校"
 },
 {
   "Country": "臺北市",
   "City": "大安區",
   "Village": "小宇里",
   "Name": "小福樓 1F廁所",
   "Address": "10617台北市大安區羅斯福路四段1號",
   "Administration": "臺灣大學小福樓",
   "Latitude": "25.018622",
   "Longitude": "121.537266",
   "Grade": "優等級",
   "Type": "殘障廁",
   "Type2": "學校"
 },
 {
   "Country": "臺北市",
   "City": "大安區",
   "Village": "小宇里",
   "Name": "文學院研究大樓 1F廁所",
   "Address": "10617台北市大安區羅斯福路四段1號",
   "Administration": "臺灣大學文學院研究大樓",
   "Latitude": "25.018109",
   "Longitude": "121.536015",
   "Grade": "優等級",
   "Type": "殘障廁",
   "Type2": "學校"
 },
 {
   "Country": "臺北市",
   "City": "大安區",
   "Village": "小宇里",
   "Name": "新月台 1F廁所",
   "Address": "10617台北市大安區羅斯福路四段1號",
   "Administration": "臺灣大學新月台",
   "Latitude": "25.018647",
   "Longitude": "121.534001",
   "Grade": "優等級",
   "Type": "殘障廁",
   "Type2": "學校"
 },
 {
   "Country": "臺北市",
   "City": "大安區",
   "Village": "小宇里",
   "Name": "鹿鳴堂 1F廁所",
   "Address": "10617台北市大安區羅斯福路四段1號",
   "Administration": "臺灣大學鹿鳴堂",
   "Latitude": "25.015197",
   "Longitude": "121.537464",
   "Grade": "優等級",
   "Type": "殘障廁",
   "Type2": "學校"
 },
 {
   "Country": "臺北市",
   "City": "大安區",
   "Village": "小宇里",
   "Name": "舊總圖書館 1F東側廁所(假日不開放)",
   "Address": "10617台北市大安區羅斯福路四段1號",
   "Administration": "臺灣大學舊總圖書館",
   "Latitude": "25.017588",
   "Longitude": "121.535703",
   "Grade": "優等級",
   "Type": "殘障廁",
   "Type2": "學校"
 },
 {
   "Country": "臺北市",
   "City": "大安區",
   "Village": "小宇里",
   "Name": "共同教學館 1F廁所",
   "Address": "10617台北市大安區羅斯福路四段1號",
   "Administration": "臺灣大學共同教學館",
   "Latitude": "25.015831",
   "Longitude": "121.537348",
   "Grade": "優等級",
   "Type": "殘障廁",
   "Type2": "學校"
 },
 {
   "Country": "臺北市",
   "City": "大安區",
   "Village": "小宇里",
   "Name": "普通教學館 1F廁所",
   "Address": "10617台北市大安區羅斯福路四段1號",
   "Administration": "臺灣大學普通教學館",
   "Latitude": "25.018595",
   "Longitude": "121.536937",
   "Grade": "優等級",
   "Type": "殘障廁",
   "Type2": "學校"
 },
 {
   "Country": "臺北市",
   "City": "大安區",
   "Village": "小宇里",
   "Name": "第一學生活動中心 1F廁所",
   "Address": "10617台北市大安區羅斯福路四段1號",
   "Administration": "臺灣大學第一學生活動中心",
   "Latitude": "25.017925",
   "Longitude": "121.540063",
   "Grade": "優等級",
   "Type": "殘障廁",
   "Type2": "學校"
 },
 {
   "Country": "臺北市",
   "City": "大安區",
   "Village": "小宇里",
   "Name": "飲水樓 2F無障礙廁所",
   "Address": "10617台北市大安區羅斯福路四段1號",
   "Administration": "臺灣大學飲水樓",
   "Latitude": "25.014019",
   "Longitude": "121.528774",
   "Grade": "優等級",
   "Type": "殘障廁",
   "Type2": "學校"
 },
 {
   "Country": "臺北市",
   "City": "大安區",
   "Village": "小宇里",
   "Name": "生化所 1F無障礙廁所",
   "Address": "10617台北市大安區羅斯福路四段1號",
   "Administration": "臺灣大學生化所",
   "Latitude": "25.019448",
   "Longitude": "121.538524",
   "Grade": "優等級",
   "Type": "殘障廁",
   "Type2": "學校"
 },
 {
   "Country": "臺北市",
   "City": "大安區",
   "Village": "小宇里",
   "Name": "體育館 1F無障礙廁所",
   "Address": "10617台北市大安區羅斯福路四段1號",
   "Administration": "臺灣大學體育館",
   "Latitude": "25.019883",
   "Longitude": "121.536286",
   "Grade": "優等級",
   "Type": "殘障廁",
   "Type2": "學校"
 },
 {
   "Country": "臺北市",
   "City": "大安區",
   "Village": "小宇里",
   "Name": "第一學生活動中心 1F無障礙廁所",
   "Address": "10617台北市大安區羅斯福路四段1號",
   "Administration": "臺灣大學第一學生活動中心",
   "Latitude": "25.018143",
   "Longitude": "121.540076",
   "Grade": "優等級",
   "Type": "殘障廁",
   "Type2": "學校"
 },
 {
   "Country": "臺北市",
   "City": "大安區",
   "Village": "小宇里",
   "Name": "新生地下汽車停車場 B1無障礙廁所",
   "Address": "10617台北市大安區羅斯福路四段1號",
   "Administration": "臺灣大學新生地下汽車停車場",
   "Latitude": "25.018413",
   "Longitude": "121.535798",
   "Grade": "優等級",
   "Type": "殘障廁",
   "Type2": "學校"
 },
 {
   "Country": "臺北市",
   "City": "大安區",
   "Village": "小宇里",
   "Name": "普通教學館 1F無障礙廁所",
   "Address": "10617台北市大安區羅斯福路四段1號",
   "Administration": "臺灣大學普通教學館",
   "Latitude": "25.018516",
   "Longitude": "121.537060",
   "Grade": "優等級",
   "Type": "殘障廁",
   "Type2": "學校"
 },
 {
   "Country": "臺北市",
   "City": "大安區",
   "Village": "小宇里",
   "Name": "化學系 無障礙廁所",
   "Address": "10617台北市大安區羅斯福路四段1號",
   "Administration": "臺灣大學",
   "Latitude": "25.019452",
   "Longitude": "121.538086",
   "Grade": "優等級",
   "Type": "殘障廁",
   "Type2": "學校"
 },
 {
   "Country": "臺北市",
   "City": "大安區",
   "Village": "小宇里",
   "Name": "博雅教學館 1~5F無障礙廁所",
   "Address": "10617台北市大安區羅斯福路四段1號",
   "Administration": "臺灣大學博雅教學館",
   "Latitude": "25.018834",
   "Longitude": "121.536497",
   "Grade": "優等級",
   "Type": "殘障廁",
   "Type2": "學校"
 },
 {
   "Country": "臺北市",
   "City": "大安區",
   "Village": "小宇里",
   "Name": "電機一館 無障礙廁所",
   "Address": "10617台北市大安區羅斯福路四段1號",
   "Administration": "臺灣大學電機一館",
   "Latitude": "25.019125",
   "Longitude": "121.538644",
   "Grade": "優等級",
   "Type": "殘障廁",
   "Type2": "學校"
 },
 {
   "Country": "臺北市",
   "City": "大安區",
   "Village": "小宇里",
   "Name": "數學館東側 1F無障礙廁所",
   "Address": "10617台北市大安區羅斯福路四段1號",
   "Administration": "臺灣大學數學館",
   "Latitude": "25.020335",
   "Longitude": "121.538597",
   "Grade": "優等級",
   "Type": "殘障廁",
   "Type2": "學校"
 },
 {
   "Country": "臺北市",
   "City": "大安區",
   "Village": "小宇里",
   "Name": "原分所 無障礙廁所",
   "Address": "10617台北市大安區羅斯福路四段1號",
   "Administration": "臺灣大學原分所",
   "Latitude": "25.018724",
   "Longitude": "121.538059",
   "Grade": "優等級",
   "Type": "殘障廁",
   "Type2": "學校"
 },
 {
   "Country": "臺北市",
   "City": "大安區",
   "Village": "小宇里",
   "Name": "地質科學系 1F無障礙廁所",
   "Address": "10617台北市大安區羅斯福路四段1號",
   "Administration": "臺灣大學",
   "Latitude": "25.014690",
   "Longitude": "121.536890",
   "Grade": "優等級",
   "Type": "殘障廁",
   "Type2": "學校"
 },
 {
   "Country": "臺北市",
   "City": "大安區",
   "Village": "小宇里",
   "Name": "工程科學及海洋學系 1F無障礙廁所",
   "Address": "10617台北市大安區羅斯福路四段1號",
   "Administration": "臺灣大學",
   "Latitude": "25.017111",
   "Longitude": "121.542679",
   "Grade": "優等級",
   "Type": "殘障廁",
   "Type2": "學校"
 },
 {
   "Country": "臺北市",
   "City": "大安區",
   "Village": "小宇里",
   "Name": "舊圖書館 1F無障礙廁所",
   "Address": "10617台北市大安區羅斯福路四段1號",
   "Administration": "臺灣大學舊圖書館",
   "Latitude": "25.017630",
   "Longitude": "121.535544",
   "Grade": "優等級",
   "Type": "殘障廁",
   "Type2": "學校"
 },
 {
   "Country": "臺北市",
   "City": "大安區",
   "Village": "小宇里",
   "Name": "舊總圖書館 1F西側無障礙廁所",
   "Address": "10617台北市大安區羅斯福路四段1號",
   "Administration": "臺灣大學舊總圖書館",
   "Latitude": "25.017649",
   "Longitude": "121.535094",
   "Grade": "優等級",
   "Type": "殘障廁",
   "Type2": "學校"
 },
 {
   "Country": "臺北市",
   "City": "大安區",
   "Village": "小宇里",
   "Name": "土木系 1F無障礙廁所",
   "Address": "10617台北市大安區羅斯福路四段1號",
   "Administration": "臺灣大學",
   "Latitude": "25.017814",
   "Longitude": "121.537803",
   "Grade": "優等級",
   "Type": "殘障廁",
   "Type2": "學校"
 },
 {
   "Country": "臺北市",
   "City": "大安區",
   "Village": "小宇里",
   "Name": "望樂樓 1F無障礙廁所",
   "Address": "10617台北市大安區羅斯福路四段1號",
   "Administration": "臺灣大學望樂樓",
   "Latitude": "25.015125",
   "Longitude": "121.536205",
   "Grade": "優等級",
   "Type": "殘障廁",
   "Type2": "學校"
 },
 {
   "Country": "臺北市",
   "City": "大安區",
   "Village": "小宇里",
   "Name": "新生教學館 1~5F無障礙廁所",
   "Address": "10617台北市大安區羅斯福路四段1號",
   "Administration": "臺灣大學新生教學館",
   "Latitude": "25.019723",
   "Longitude": "121.538671",
   "Grade": "優等級",
   "Type": "殘障廁",
   "Type2": "學校"
 },
 {
   "Country": "臺北市",
   "City": "大安區",
   "Village": "小宇里",
   "Name": "思亮館國際會議中心 1F無障礙廁所",
   "Address": "10617台北市大安區羅斯福路四段1號",
   "Administration": "臺灣大學思亮館國際會議中心",
   "Latitude": "25.020732",
   "Longitude": "121.538261",
   "Grade": "優等級",
   "Type": "殘障廁",
   "Type2": "學校"
 },
 {
   "Country": "臺北市",
   "City": "大安區",
   "Village": "小宇里",
   "Name": "凝態科學研究中心 B1~7F無障礙廁所",
   "Address": "10617台北市大安區羅斯福路四段1號",
   "Administration": "臺灣大學凝態科學研究中心",
   "Latitude": "25.021758",
   "Longitude": "121.536852",
   "Grade": "優等級",
   "Type": "殘障廁",
   "Type2": "學校"
 },
 {
   "Country": "臺北市",
   "City": "大安區",
   "Village": "小宇里",
   "Name": "天文數學館 1F無障礙廁所",
   "Address": "10617台北市大安區羅斯福路四段1號",
   "Administration": "臺灣大學天文數學館",
   "Latitude": "25.021267",
   "Longitude": "121.538308",
   "Grade": "優等級",
   "Type": "殘障廁",
   "Type2": "學校"
 },
 {
   "Country": "臺北市",
   "City": "大安區",
   "Village": "小宇里",
   "Name": "綜合體育館 1~4F,B1無障礙廁所",
   "Address": "10617台北市大安區羅斯福路四段1號",
   "Administration": "臺灣大學綜合體育館",
   "Latitude": "25.021888",
   "Longitude": "121.534974",
   "Grade": "優等級",
   "Type": "殘障廁",
   "Type2": "學校"
 },
 {
   "Country": "臺北市",
   "City": "大安區",
   "Village": "小宇里",
   "Name": "展書樓 1F無障礙廁所",
   "Address": "10617台北市大安區羅斯福路四段1號",
   "Administration": "臺灣大學展書樓",
   "Latitude": "25.014652",
   "Longitude": "121.536598",
   "Grade": "優等級",
   "Type": "殘障廁",
   "Type2": "學校"
 },
 {
   "Country": "臺北市",
   "City": "大安區",
   "Village": "小宇里",
   "Name": "語文大樓 1F無障礙廁所",
   "Address": "10617台北市大安區羅斯福路四段1號",
   "Administration": "臺灣大學語文大樓",
   "Latitude": "25.020563",
   "Longitude": "121.540885",
   "Grade": "優等級",
   "Type": "殘障廁",
   "Type2": "學校"
 },
 {
   "Country": "臺北市",
   "City": "大安區",
   "Village": "小宇里",
   "Name": "綜合體育館 4F無障礙廁所",
   "Address": "10617台北市大安區羅斯福路四段1號",
   "Administration": "臺灣大學綜合體育館",
   "Latitude": "25.021594",
   "Longitude": "121.535488",
   "Grade": "優等級",
   "Type": "殘障廁",
   "Type2": "學校"
 },
 {
   "Country": "臺北市",
   "City": "大安區",
   "Village": "小宇里",
   "Name": "綜合體育館 3~4F無障礙廁所",
   "Address": "10617台北市大安區羅斯福路四段1號",
   "Administration": "臺灣大學綜合體育館",
   "Latitude": "25.021814",
   "Longitude": "121.535480",
   "Grade": "優等級",
   "Type": "殘障廁",
   "Type2": "學校"
 },
 {
   "Country": "臺北市",
   "City": "大安區",
   "Village": "小宇里",
   "Name": "外語教學暨資源中心 1F無障礙廁所",
   "Address": "10617台北市大安區羅斯福路四段1號",
   "Administration": "臺灣大學外語教學暨資源中心",
   "Latitude": "25.020581",
   "Longitude": "121.540030",
   "Grade": "優等級",
   "Type": "殘障廁",
   "Type2": "學校"
 },
 {
   "Country": "臺北市",
   "City": "大安區",
   "Village": "小宇里",
   "Name": "海洋研究所 1~4F無障礙廁所",
   "Address": "10617台北市大安區羅斯福路四段1號",
   "Administration": "臺灣大學海洋研究所",
   "Latitude": "25.021509",
   "Longitude": "121.537572",
   "Grade": "優等級",
   "Type": "殘障廁",
   "Type2": "學校"
 },
 {
   "Country": "臺北市",
   "City": "大安區",
   "Village": "小宇里",
   "Name": "文學院研究大樓 1F無障礙廁所",
   "Address": "10617台北市大安區羅斯福路四段1號",
   "Administration": "臺灣大學文學院研究大樓",
   "Latitude": "25.017970",
   "Longitude": "121.536345",
   "Grade": "優等級",
   "Type": "殘障廁",
   "Type2": "學校"
 },
 {
   "Country": "臺北市",
   "City": "大安區",
   "Village": "小宇里",
   "Name": "水森館 1F無障礙廁所",
   "Address": "10617台北市大安區羅斯福路四段1號",
   "Administration": "臺灣大學水森館",
   "Latitude": "25.041865",
   "Longitude": "121.522808",
   "Grade": "優等級",
   "Type": "殘障廁",
   "Type2": "學校"
 },
 {
   "Country": "臺北市",
   "City": "大安區",
   "Village": "小宇里",
   "Name": "水森館 1F無障礙廁所",
   "Address": "10617台北市大安區羅斯福路四段1號",
   "Administration": "臺灣大學水森館",
   "Latitude": "25.041865",
   "Longitude": "121.522808",
   "Grade": "優等級",
   "Type": "殘障廁",
   "Type2": "學校"
 },
 {
   "Country": "臺北市",
   "City": "大安區",
   "Village": "小宇里",
   "Name": "管理學院一號館 1~10F,B1無障礙廁所(男)",
   "Address": "10617台北市大安區羅斯福路四段1號",
   "Administration": "臺灣大學管理學院一號館",
   "Latitude": "25.013803",
   "Longitude": "121.538261",
   "Grade": "優等級",
   "Type": "殘障廁",
   "Type2": "學校"
 },
 {
   "Country": "臺北市",
   "City": "大安區",
   "Village": "小宇里",
   "Name": "管理學院一號館 1~10F,B1無障礙廁所(女)",
   "Address": "10617台北市大安區羅斯福路四段1號",
   "Administration": "臺灣大學管理學院一號館",
   "Latitude": "25.014150",
   "Longitude": "121.538000",
   "Grade": "優等級",
   "Type": "殘障廁",
   "Type2": "學校"
 },
 {
   "Country": "臺北市",
   "City": "大安區",
   "Village": "小宇里",
   "Name": "雅頌坊 1F獨立無障礙廁所(表演活動前30分開放)",
   "Address": "10617台北市大安區羅斯福路四段1號",
   "Administration": "臺灣大學雅頌坊",
   "Latitude": "25.013729",
   "Longitude": "121.538688",
   "Grade": "優等級",
   "Type": "殘障廁",
   "Type2": "學校"
 },
 {
   "Country": "臺北市",
   "City": "大安區",
   "Village": "小宇里",
   "Name": "新生地下汽車停車場 B1無障礙廁所",
   "Address": "10617台北市大安區羅斯福路四段1號",
   "Administration": "臺灣大學",
   "Latitude": "25.018558",
   "Longitude": "121.534201",
   "Grade": "優等級",
   "Type": "殘障廁",
   "Type2": "學校"
 },
 {
   "Country": "臺北市",
   "City": "大安區",
   "Village": "小宇里",
   "Name": "小福樓 1F無障礙廁所",
   "Address": "10617台北市大安區羅斯福路四段1號",
   "Administration": "臺灣大學小福樓",
   "Latitude": "25.018665",
   "Longitude": "121.537252",
   "Grade": "優等級",
   "Type": "殘障廁",
   "Type2": "學校"
 },
 {
   "Country": "臺北市",
   "City": "大安區",
   "Village": "小宇里",
   "Name": "第二活動中心 1~10F無障礙廁所",
   "Address": "10617台北市大安區羅斯福路四段1號",
   "Administration": "臺灣大學第二活動中心",
   "Latitude": "25.012892",
   "Longitude": "121.536872",
   "Grade": "優等級",
   "Type": "殘障廁",
   "Type2": "學校"
 },
 {
   "Country": "臺北市",
   "City": "大安區",
   "Village": "小宇里",
   "Name": "第二活動中心 1~10F無障礙廁所",
   "Address": "10617台北市大安區羅斯福路四段1號",
   "Administration": "臺灣大學第二活動中心",
   "Latitude": "25.013125",
   "Longitude": "121.536625",
   "Grade": "優等級",
   "Type": "殘障廁",
   "Type2": "學校"
 },
 {
   "Country": "臺北市",
   "City": "大安區",
   "Village": "小宇里",
   "Name": "應用力學館 1F無障礙廁所(女)",
   "Address": "10617台北市大安區羅斯福路四段1號",
   "Administration": "臺灣大學應用力學館",
   "Latitude": "25.019626",
   "Longitude": "121.541107",
   "Grade": "優等級",
   "Type": "無障礙女廁",
   "Type2": "學校"
 },
 {
   "Country": "臺北市",
   "City": "大安區",
   "Village": "小宇里",
   "Name": "普通教學館 2~5F無障礙廁所",
   "Address": "10617台北市大安區羅斯福路四段1號",
   "Administration": "臺灣大學普通教學館",
   "Latitude": "25.018587",
   "Longitude": "121.536372",
   "Grade": "優等級",
   "Type": "殘障廁",
   "Type2": "學校"
 },
 {
   "Country": "臺北市",
   "City": "大安區",
   "Village": "小宇里",
   "Name": "心理系北館 1F無障礙廁所",
   "Address": "10617台北市大安區羅斯福路四段1號",
   "Administration": "臺灣大學心理系北館",
   "Latitude": "25.019987",
   "Longitude": "121.540138",
   "Grade": "優等級",
   "Type": "殘障廁",
   "Type2": "學校"
 },
 {
   "Country": "臺北市",
   "City": "大安區",
   "Village": "小宇里",
   "Name": "水源校區行政大樓 1~5F無障礙廁所",
   "Address": "10617台北市大安區羅斯福路四段1號",
   "Administration": "臺灣大學水源校區行政大樓",
   "Latitude": "25.013838",
   "Longitude": "121.529428",
   "Grade": "優等級",
   "Type": "殘障廁",
   "Type2": "學校"
 },
 {
   "Country": "臺北市",
   "City": "大安區",
   "Village": "小宇里",
   "Name": "衛生保健中心 1F無障礙廁所",
   "Address": "10617台北市大安區羅斯福路四段1號",
   "Administration": "臺灣大學衛生保健中心",
   "Latitude": "25.016887",
   "Longitude": "121.539484",
   "Grade": "優等級",
   "Type": "殘障廁",
   "Type2": "學校"
 },
 {
   "Country": "臺北市",
   "City": "大安區",
   "Village": "小宇里",
   "Name": "萬才館 1~7F無障礙廁所",
   "Address": "10617台北市大安區羅斯福路四段1號",
   "Administration": "臺灣大學萬才館",
   "Latitude": "25.019822",
   "Longitude": "121.544755",
   "Grade": "優等級",
   "Type": "殘障廁",
   "Type2": "學校"
 },
 {
   "Country": "臺北市",
   "City": "大安區",
   "Village": "小宇里",
   "Name": "中非大樓 1F無障礙廁所",
   "Address": "10617台北市大安區羅斯福路四段1號",
   "Administration": "臺灣大學中非大樓",
   "Latitude": "25.018127",
   "Longitude": "121.543720",
   "Grade": "優等級",
   "Type": "殘障廁",
   "Type2": "學校"
 },
 {
   "Country": "臺北市",
   "City": "大安區",
   "Village": "小宇里",
   "Name": "霖澤館 1F無障礙廁所",
   "Address": "10617台北市大安區羅斯福路四段1號",
   "Administration": "臺灣大學霖澤館",
   "Latitude": "25.020825",
   "Longitude": "121.543768",
   "Grade": "優等級",
   "Type": "殘障廁",
   "Type2": "學校"
 },
 {
   "Country": "臺北市",
   "City": "大安區",
   "Village": "小宇里",
   "Name": "管理學院二號館 1~10F無障礙廁所",
   "Address": "10617台北市大安區羅斯福路四段1號",
   "Administration": "臺灣大學管理學院二號館",
   "Latitude": "25.012820",
   "Longitude": "121.536917",
   "Grade": "優等級",
   "Type": "殘障廁",
   "Type2": "學校"
 },
 {
   "Country": "臺北市",
   "City": "大安區",
   "Village": "小宇里",
   "Name": "管理學院二號館 1~10F無障礙廁所",
   "Address": "10617台北市大安區羅斯福路四段1號",
   "Administration": "臺灣大學管理學院二號館",
   "Latitude": "25.013189",
   "Longitude": "121.536649",
   "Grade": "優等級",
   "Type": "殘障廁",
   "Type2": "學校"
 },
 {
   "Country": "臺北市",
   "City": "大安區",
   "Village": "小宇里",
   "Name": "男七舍 1F無障礙廁所",
   "Address": "10617台北市大安區羅斯福路四段1號",
   "Administration": "臺灣大學管理學院二號館",
   "Latitude": "25.015099",
   "Longitude": "121.546850",
   "Grade": "優等級",
   "Type": "殘障廁",
   "Type2": "學校"
 },
 {
   "Country": "臺北市",
   "City": "大安區",
   "Village": "小宇里",
   "Name": "漁業科學館 1F無障礙廁所",
   "Address": "10617台北市大安區羅斯福路四段1號",
   "Administration": "臺灣大學漁業科學館",
   "Latitude": "25.020487",
   "Longitude": "121.539311",
   "Grade": "優等級",
   "Type": "殘障廁",
   "Type2": "學校"
 },
 {
   "Country": "臺北市",
   "City": "大安區",
   "Village": "小宇里",
   "Name": "生技館 2F無障礙廁所",
   "Address": "10617台北市大安區羅斯福路四段1號",
   "Administration": "臺灣大學生技館",
   "Latitude": "25.015680",
   "Longitude": "121.547227",
   "Grade": "優等級",
   "Type": "殘障廁",
   "Type2": "學校"
 },
 {
   "Country": "臺北市",
   "City": "大安區",
   "Village": "小宇里",
   "Name": "凝態科學研究中心 2F無障礙廁所",
   "Address": "10617台北市大安區羅斯福路四段1號",
   "Administration": "臺灣大學凝態科學研究中心",
   "Latitude": "25.021901",
   "Longitude": "121.536388",
   "Grade": "優等級",
   "Type": "殘障廁",
   "Type2": "學校"
 },
 {
   "Country": "臺北市",
   "City": "大安區",
   "Village": "小宇里",
   "Name": "綜合體育館 無障礙廁所(1F,3F,4F,B1)",
   "Address": "10617台北市大安區羅斯福路四段1號",
   "Administration": "臺灣大學綜合體育館",
   "Latitude": "25.021445",
   "Longitude": "121.534958",
   "Grade": "優等級",
   "Type": "殘障廁",
   "Type2": "學校"
 },
 {
   "Country": "臺北市",
   "City": "大安區",
   "Village": "小宇里",
   "Name": "共同教學館 1~4F無障礙廁所",
   "Address": "10617台北市大安區羅斯福路四段1號",
   "Administration": "臺灣大學共同教學館",
   "Latitude": "25.015893",
   "Longitude": "121.537314",
   "Grade": "優等級",
   "Type": "殘障廁",
   "Type2": "學校"
 },
 {
   "Country": "臺北市",
   "City": "大安區",
   "Village": "小宇里",
   "Name": "綜合體育館 B1無障礙廁所",
   "Address": "10617台北市大安區羅斯福路四段1號",
   "Administration": "臺灣大學綜合體育館",
   "Latitude": "25.021344",
   "Longitude": "121.535446",
   "Grade": "優等級",
   "Type": "殘障廁",
   "Type2": "學校"
 },
 {
   "Country": "臺北市",
   "City": "大安區",
   "Village": "小宇里",
   "Name": "大氣科學系 1F無障礙廁所",
   "Address": "10617台北市大安區羅斯福路四段1號",
   "Administration": "臺灣大學",
   "Latitude": "25.014851",
   "Longitude": "121.539008",
   "Grade": "優等級",
   "Type": "殘障廁",
   "Type2": "學校"
 },
 {
   "Country": "臺北市",
   "City": "大安區",
   "Village": "小宇里",
   "Name": "女九舍餐廳 1F無障礙廁所",
   "Address": "10617台北市大安區羅斯福路四段1號",
   "Administration": "臺灣大學女九舍餐廳",
   "Latitude": "25.019544",
   "Longitude": "121.539430",
   "Grade": "優等級",
   "Type": "殘障廁",
   "Type2": "學校"
 },
 {
   "Country": "臺北市",
   "City": "大安區",
   "Village": "小宇里",
   "Name": "管理學院教研館 1F無障礙廁所",
   "Address": "10617台北市大安區羅斯福路四段1號",
   "Administration": "臺灣大學管理學院教研館",
   "Latitude": "25.012898",
   "Longitude": "121.538683",
   "Grade": "優等級",
   "Type": "殘障廁",
   "Type2": "學校"
 },
 {
   "Country": "臺北市",
   "City": "大安區",
   "Village": "小宇里",
   "Name": "國家地震中心 無障礙廁所(1,3~5F)",
   "Address": "10617台北市大安區羅斯福路四段1號",
   "Administration": "臺灣大學國家地震中心",
   "Latitude": "25.017306",
   "Longitude": "121.547566",
   "Grade": "優等級",
   "Type": "殘障廁",
   "Type2": "學校"
 },
 {
   "Country": "臺北市",
   "City": "大安區",
   "Village": "小宇里",
   "Name": "農藝館 1F無障礙廁所",
   "Address": "10617台北市大安區羅斯福路四段1號",
   "Administration": "臺灣大學農藝館",
   "Latitude": "25.018307",
   "Longitude": "121.540950",
   "Grade": "優等級",
   "Type": "殘障廁",
   "Type2": "學校"
 },
 {
   "Country": "臺北市",
   "City": "大安區",
   "Village": "小宇里",
   "Name": "農業綜合大樓 1F無障礙廁所",
   "Address": "10617台北市大安區羅斯福路四段1號",
   "Administration": "臺灣大學農業綜合大樓",
   "Latitude": "25.016231",
   "Longitude": "121.537284",
   "Grade": "優等級",
   "Type": "殘障廁",
   "Type2": "學校"
 },
 {
   "Country": "臺北市",
   "City": "大安區",
   "Village": "小宇里",
   "Name": "農業陳列館 1F無障礙廁所",
   "Address": "10617台北市大安區羅斯福路四段1號",
   "Administration": "臺灣大學農業陳列館",
   "Latitude": "25.018125",
   "Longitude": "121.534039",
   "Grade": "優等級",
   "Type": "殘障廁",
   "Type2": "學校"
 },
 {
   "Country": "臺北市",
   "City": "大安區",
   "Village": "小宇里",
   "Name": "社會科學院 無障礙廁所(1,3~5,7F)",
   "Address": "10617台北市大安區羅斯福路四段1號",
   "Administration": "臺灣大學社會科學院",
   "Latitude": "25.020704",
   "Longitude": "121.542993",
   "Grade": "優等級",
   "Type": "殘障廁",
   "Type2": "學校"
 },
 {
   "Country": "臺北市",
   "City": "大安區",
   "Village": "小宇里",
   "Name": "社會科學院 1F無障礙廁所",
   "Address": "10617台北市大安區羅斯福路四段1號",
   "Administration": "臺灣大學社會科學院",
   "Latitude": "25.020701",
   "Longitude": "121.542851",
   "Grade": "優等級",
   "Type": "殘障廁",
   "Type2": "學校"
 },
 {
   "Country": "臺北市",
   "City": "大安區",
   "Village": "小宇里",
   "Name": "綜合體育館 B1無障礙廁所",
   "Address": "10617台北市大安區羅斯福路四段1號",
   "Administration": "臺灣大學社會科學院",
   "Latitude": "25.021811",
   "Longitude": "121.534763",
   "Grade": "優等級",
   "Type": "殘障廁",
   "Type2": "學校"
 },
 {
   "Country": "臺北市",
   "City": "大安區",
   "Village": "小宇里",
   "Name": "應用力學館 1F無障礙廁所(男)",
   "Address": "10617台北市大安區羅斯福路四段1號",
   "Administration": "臺灣大學應用力學館",
   "Latitude": "25.020105",
   "Longitude": "121.541081",
   "Grade": "優等級",
   "Type": "殘障廁",
   "Type2": "學校"
 },
 {
   "Country": "臺北市",
   "City": "大安區",
   "Village": "小宇里",
   "Name": "推廣教育大樓 1F無障礙廁所",
   "Address": "10617台北市大安區羅斯福路四段1號",
   "Administration": "臺灣大學推廣教育大樓",
   "Latitude": "25.012012",
   "Longitude": "121.537001",
   "Grade": "優等級",
   "Type": "殘障廁",
   "Type2": "學校"
 },
 {
   "Country": "臺北市",
   "City": "大安區",
   "Village": "小宇里",
   "Name": "地理系館 1F無障礙廁所",
   "Address": "10617台北市大安區羅斯福路四段1號",
   "Administration": "臺灣大學地理系館",
   "Latitude": "25.014968",
   "Longitude": "121.014968",
   "Grade": "優等級",
   "Type": "殘障廁",
   "Type2": "學校"
 },
 {
   "Country": "臺北市",
   "City": "大安區",
   "Village": "小宇里",
   "Name": "人工氣候室 1F無障礙廁所",
   "Address": "10617台北市大安區羅斯福路四段1號",
   "Administration": "臺灣大學人工氣候室",
   "Latitude": "25.016250",
   "Longitude": "121.541187",
   "Grade": "優等級",
   "Type": "殘障廁",
   "Type2": "學校"
 },
 {
   "Country": "臺北市",
   "City": "大安區",
   "Village": "小宇里",
   "Name": "綜合體育館 1F,B1無障礙廁所",
   "Address": "10617台北市大安區羅斯福路四段1號",
   "Administration": "臺灣大學綜合體育館",
   "Latitude": "25.021971",
   "Longitude": "121.535454",
   "Grade": "優等級",
   "Type": "殘障廁",
   "Type2": "學校"
 },
 {
   "Country": "臺北市",
   "City": "大安區",
   "Village": "小宇里",
   "Name": "天文數學館 無障礙廁所(B1,2,4~8F)",
   "Address": "10617台北市大安區羅斯福路四段1號",
   "Administration": "臺灣大學天文數學館",
   "Latitude": "25.021325",
   "Longitude": "121.537914",
   "Grade": "優等級",
   "Type": "殘障廁",
   "Type2": "學校"
 },
 {
   "Country": "臺北市",
   "City": "大安區",
   "Village": "小宇里",
   "Name": "電資二館 1F無障礙廁所",
   "Address": "10617台北市大安區羅斯福路四段1號",
   "Administration": "臺灣大學電資二館",
   "Latitude": "25.018944",
   "Longitude": "121.542169",
   "Grade": "優等級",
   "Type": "殘障廁",
   "Type2": "學校"
 },
 {
   "Country": "臺北市",
   "City": "大安區",
   "Village": "小宇里",
   "Name": "國家發展研究所 1F無障礙廁所",
   "Address": "10617台北市大安區羅斯福路四段1號",
   "Administration": "臺灣大學國家發展研究所",
   "Latitude": "25.020300",
   "Longitude": "121.543118",
   "Grade": "優等級",
   "Type": "殘障廁",
   "Type2": "學校"
 },
 {
   "Country": "臺北市",
   "City": "大安區",
   "Village": "小宇里",
   "Name": "綜合體育館B1舞蹈室 無障礙廁所",
   "Address": "10617台北市大安區羅斯福路四段1號",
   "Administration": "臺灣大學綜合體育館",
   "Latitude": "25.021379",
   "Longitude": "121.535049",
   "Grade": "優等級",
   "Type": "殘障廁",
   "Type2": "學校"
 },
 {
   "Country": "臺北市",
   "City": "大安區",
   "Village": "小宇里",
   "Name": "農機館 1F無障礙廁所",
   "Address": "10617台北市大安區羅斯福路四段1號",
   "Administration": "臺灣大學農機館",
   "Latitude": "25.018000",
   "Longitude": "121.542708",
   "Grade": "優等級",
   "Type": "殘障廁",
   "Type2": "學校"
 },
 {
   "Country": "臺北市",
   "City": "大安區",
   "Village": "小宇里",
   "Name": "浩瀚樓 無障礙廁所",
   "Address": "10617台北市大安區羅斯福路四段1號",
   "Administration": "臺灣大學浩瀚樓",
   "Latitude": "25.014845",
   "Longitude": "121.538450",
   "Grade": "優等級",
   "Type": "殘障廁",
   "Type2": "學校"
 },
 {
   "Country": "臺北市",
   "City": "大安區",
   "Village": "小宇里",
   "Name": "文學院 1F無障礙廁所",
   "Address": "10617台北市大安區羅斯福路四段1號",
   "Administration": "臺灣大學文學院",
   "Latitude": "25.017984",
   "Longitude": "121.536701",
   "Grade": "優等級",
   "Type": "殘障廁",
   "Type2": "學校"
 },
 {
   "Country": "臺北市",
   "City": "大安區",
   "Village": "小宇里",
   "Name": "農化新館 1~5F無障礙廁所",
   "Address": "10617台北市大安區羅斯福路四段1號",
   "Administration": "臺灣大學文學院",
   "Latitude": "25.016272",
   "Longitude": "121.535558",
   "Grade": "優等級",
   "Type": "殘障廁",
   "Type2": "學校"
 },
 {
   "Country": "臺北市",
   "City": "大安區",
   "Village": "小宇里",
   "Name": "環境研究大樓 1F無障礙廁所",
   "Address": "10617台北市大安區羅斯福路四段1號",
   "Administration": "臺灣大學環境研究大樓",
   "Latitude": "25.012009",
   "Longitude": "121.544926",
   "Grade": "優等級",
   "Type": "殘障廁",
   "Type2": "學校"
 },
 {
   "Country": "臺北市",
   "City": "大安區",
   "Village": "小宇里",
   "Name": "獸醫系三館 B1無障礙廁所",
   "Address": "10617台北市大安區羅斯福路四段1號",
   "Administration": "臺灣大學獸醫系三館",
   "Latitude": "25.018272",
   "Longitude": "121.542165",
   "Grade": "優等級",
   "Type": "殘障廁",
   "Type2": "學校"
 },
 {
   "Country": "臺北市",
   "City": "大安區",
   "Village": "小宇里",
   "Name": "思亮館 1F無障礙廁所",
   "Address": "10617台北市大安區羅斯福路四段1號",
   "Administration": "臺灣大學思亮館",
   "Latitude": "25.020911",
   "Longitude": "121.538272",
   "Grade": "優等級",
   "Type": "殘障廁",
   "Type2": "學校"
 },
 {
   "Country": "臺北市",
   "City": "大安區",
   "Village": "小宇里",
   "Name": "社會科學院 1F無障礙廁所",
   "Address": "10617台北市大安區羅斯福路四段1號",
   "Administration": "臺灣大學社會科學院",
   "Latitude": "25.020696",
   "Longitude": "121.542571",
   "Grade": "優等級",
   "Type": "殘障廁",
   "Type2": "學校"
 },
 {
   "Country": "臺北市",
   "City": "大安區",
   "Village": "小宇里",
   "Name": "男八舍 1F無障礙廁所",
   "Address": "10617台北市大安區羅斯福路四段1號",
   "Administration": "臺灣大學男八舍",
   "Latitude": "25.017031",
   "Longitude": "121.545379",
   "Grade": "優等級",
   "Type": "殘障廁",
   "Type2": "學校"
 },
 {
   "Country": "臺北市",
   "City": "大安區",
   "Village": "小宇里",
   "Name": "明達館 2~7F無障礙廁所",
   "Address": "10617台北市大安區羅斯福路四段1號",
   "Administration": "臺灣大學明達館",
   "Latitude": "25.017689",
   "Longitude": "121.544124",
   "Grade": "優等級",
   "Type": "殘障廁",
   "Type2": "學校"
 },
 {
   "Country": "臺北市",
   "City": "大安區",
   "Village": "小宇里",
   "Name": "社會及社工館 1~4F無障礙廁所",
   "Address": "10617台北市大安區羅斯福路四段1號",
   "Administration": "臺灣大學社會及社工館",
   "Latitude": "25.020347",
   "Longitude": "121.541517",
   "Grade": "優等級",
   "Type": "殘障廁",
   "Type2": "學校"
 },
 {
   "Country": "臺北市",
   "City": "大安區",
   "Village": "小宇里",
   "Name": "環境工程館 1F無障礙廁所",
   "Address": "10617台北市大安區羅斯福路四段1號",
   "Administration": "臺灣大學環境工程館",
   "Latitude": "25.017186",
   "Longitude": "121.543759",
   "Grade": "優等級",
   "Type": "殘障廁",
   "Type2": "學校"
 },
 {
   "Country": "臺北市",
   "City": "大安區",
   "Village": "小宇里",
   "Name": "男六舍 1F無障礙廁所",
   "Address": "10617台北市大安區羅斯福路四段1號",
   "Administration": "臺灣大學男六舍",
   "Latitude": "25.016646",
   "Longitude": "121.545458",
   "Grade": "優等級",
   "Type": "殘障廁",
   "Type2": "學校"
 },
 {
   "Country": "臺北市",
   "City": "大安區",
   "Village": "小宇里",
   "Name": "新聞研究所 無障礙廁所",
   "Address": "10617台北市大安區羅斯福路四段1號",
   "Administration": "臺灣大學新聞研究所",
   "Latitude": "25.019579",
   "Longitude": "121.543095",
   "Grade": "優等級",
   "Type": "殘障廁",
   "Type2": "學校"
 },
 {
   "Country": "臺北市",
   "City": "大安區",
   "Village": "小宇里",
   "Name": "男五舍 1F無障礙廁所",
   "Address": "10617台北市大安區羅斯福路四段1號",
   "Administration": "臺灣大學男五舍",
   "Latitude": "25.015665",
   "Longitude": "121.544668",
   "Grade": "優等級",
   "Type": "殘障廁",
   "Type2": "學校"
 },
 {
   "Country": "臺北市",
   "City": "大安區",
   "Village": "小宇里",
   "Name": "積學館 1~2F無障礙廁所",
   "Address": "10617台北市大安區羅斯福路四段1號",
   "Administration": "臺灣大學積學館",
   "Latitude": "25.019144",
   "Longitude": "121.538134",
   "Grade": "優等級",
   "Type": "殘障廁",
   "Type2": "學校"
 },
 {
   "Country": "臺北市",
   "City": "大安區",
   "Village": "小宇里",
   "Name": "天文數學館 3~7F無障礙廁所",
   "Address": "10617台北市大安區羅斯福路四段1號",
   "Administration": "臺灣大學天文數學館",
   "Latitude": "25.021248",
   "Longitude": "121.538425",
   "Grade": "優等級",
   "Type": "殘障廁",
   "Type2": "學校"
 },
 {
   "Country": "臺北市",
   "City": "大安區",
   "Village": "小宇里",
   "Name": "生命科學館 無障礙廁所",
   "Address": "10617台北市大安區羅斯福路四段1號",
   "Administration": "臺灣大學生命科學館",
   "Latitude": "25.015468",
   "Longitude": "121.538390",
   "Grade": "優等級",
   "Type": "殘障廁",
   "Type2": "學校"
 },
 {
   "Country": "臺北市",
   "City": "大安區",
   "Village": "小宇里",
   "Name": "游泳池 1F無障礙廁所",
   "Address": "10617台北市大安區羅斯福路四段1號",
   "Administration": "臺灣大學游泳池",
   "Latitude": "25.020757",
   "Longitude": "121.536255",
   "Grade": "優等級",
   "Type": "殘障廁",
   "Type2": "學校"
 },
 {
   "Country": "臺北市",
   "City": "大安區",
   "Village": "小宇里",
   "Name": "生命科學館 無障礙廁所",
   "Address": "10617台北市大安區羅斯福路四段1號",
   "Administration": "臺灣大學生命科學館",
   "Latitude": "25.015334",
   "Longitude": "121.538401",
   "Grade": "優等級",
   "Type": "殘障廁",
   "Type2": "學校"
 },
 {
   "Country": "臺北市",
   "City": "大安區",
   "Village": "小宇里",
   "Name": "社會科學院 無障礙廁所",
   "Address": "10617台北市大安區羅斯福路四段1號",
   "Administration": "臺灣大學社會科學院",
   "Latitude": "25.020736",
   "Longitude": "121.541942",
   "Grade": "優等級",
   "Type": "殘障廁",
   "Type2": "學校"
 },
 {
   "Country": "臺北市",
   "City": "大安區",
   "Village": "小宇里",
   "Name": "社會科學院 無障礙廁所(1,3,6~8F)",
   "Address": "10617台北市大安區羅斯福路四段1號",
   "Administration": "臺灣大學社會科學院",
   "Latitude": "25.020776",
   "Longitude": "121.541745",
   "Grade": "優等級",
   "Type": "殘障廁",
   "Type2": "學校"
 },
 {
   "Country": "臺北市",
   "City": "大安區",
   "Village": "小宇里",
   "Name": "計算機及資訊網路中心 1F無障礙廁所",
   "Address": "10617台北市大安區羅斯福路四段1號",
   "Administration": "臺灣大學計算機及資訊網路中心",
   "Latitude": "25.020887",
   "Longitude": "121.539518",
   "Grade": "優等級",
   "Type": "殘障廁",
   "Type2": "學校"
 },
 {
   "Country": "臺北市",
   "City": "大安區",
   "Village": "小宇里",
   "Name": "博理館 1F無障礙廁所",
   "Address": "10617台北市大安區羅斯福路四段1號",
   "Administration": "臺灣大學博理館",
   "Latitude": "25.019205",
   "Longitude": "121.542335",
   "Grade": "優等級",
   "Type": "殘障廁",
   "Type2": "學校"
 },
 {
   "Country": "臺北市",
   "City": "大安區",
   "Village": "小宇里",
   "Name": "男一舍 1F無障礙廁所",
   "Address": "10617台北市大安區羅斯福路四段1號",
   "Administration": "臺灣大學男一舍",
   "Latitude": "25.016306",
   "Longitude": "121.544386",
   "Grade": "優等級",
   "Type": "殘障廁",
   "Type2": "學校"
 },
 {
   "Country": "臺北市",
   "City": "大安區",
   "Village": "小宇里",
   "Name": "生命科學館 無障礙廁所",
   "Address": "10617台北市大安區羅斯福路四段1號",
   "Administration": "臺灣大學生命科學館",
   "Latitude": "25.015313",
   "Longitude": "121.538718",
   "Grade": "優等級",
   "Type": "殘障廁",
   "Type2": "學校"
 },
 {
   "Country": "臺北市",
   "City": "大安區",
   "Village": "小宇里",
   "Name": "數學研究中心 1F無障礙廁所",
   "Address": "10617台北市大安區羅斯福路四段1號",
   "Administration": "臺灣大學數學研究中心",
   "Latitude": "25.020141",
   "Longitude": "121.538469",
   "Grade": "優等級",
   "Type": "殘障廁",
   "Type2": "學校"
 },
 {
   "Country": "臺北市",
   "City": "大安區",
   "Village": "小宇里",
   "Name": "德田樓 1F無障礙廁所",
   "Address": "10617台北市大安區羅斯福路四段1號",
   "Administration": "臺灣大學德田樓",
   "Latitude": "25.019252",
   "Longitude": "121.541863",
   "Grade": "優等級",
   "Type": "殘障廁",
   "Type2": "學校"
 },
 {
   "Country": "臺北市",
   "City": "大安區",
   "Village": "小宇里",
   "Name": "凝態科學研究中心 無障礙廁所(8,10,11F)",
   "Address": "10617台北市大安區羅斯福路四段1號",
   "Administration": "臺灣大學德田樓",
   "Latitude": "25.021821",
   "Longitude": "121.536685",
   "Grade": "優等級",
   "Type": "殘障廁",
   "Type2": "學校"
 },
 {
   "Country": "臺北市",
   "City": "大安區",
   "Village": "小宇里",
   "Name": "土木研究大樓 1F無障礙廁所",
   "Address": "10617台北市大安區羅斯福路四段1號",
   "Administration": "臺灣大學土木研究大樓",
   "Latitude": "25.017848",
   "Longitude": "121.547127",
   "Grade": "優等級",
   "Type": "殘障廁",
   "Type2": "學校"
 },
 {
   "Country": "臺北市",
   "City": "大安區",
   "Village": "小宇里",
   "Name": "動物醫院 B1無障礙廁所",
   "Address": "10617台北市大安區羅斯福路四段1號",
   "Administration": "臺灣大學動物醫院",
   "Latitude": "25.015381",
   "Longitude": "121.543273",
   "Grade": "優等級",
   "Type": "殘障廁",
   "Type2": "學校"
 },
 {
   "Country": "臺北市",
   "City": "大安區",
   "Village": "小宇里",
   "Name": "男三舍 1F無障礙廁所",
   "Address": "10617台北市大安區羅斯福路四段1號",
   "Administration": "臺灣大學男三舍",
   "Latitude": "25.015773",
   "Longitude": "121.015773",
   "Grade": "優等級",
   "Type": "殘障廁",
   "Type2": "學校"
 },
 {
   "Country": "臺北市",
   "City": "大安區",
   "Village": "小宇里",
   "Name": "育成中心B棟 無障礙廁所",
   "Address": "10617台北市大安區羅斯福路四段1號",
   "Administration": "臺灣大學育成中心B棟",
   "Latitude": "25.013005",
   "Longitude": "121.529066",
   "Grade": "優等級",
   "Type": "殘障廁",
   "Type2": "學校"
 },
 {
   "Country": "臺北市",
   "City": "大安區",
   "Village": "小宇里",
   "Name": "卓越研究大樓 1F,6F無障礙廁所",
   "Address": "10617台北市大安區羅斯福路四段1號",
   "Administration": "臺灣大學卓越研究大樓",
   "Latitude": "25.014690",
   "Longitude": "121.528350",
   "Grade": "優等級",
   "Type": "殘障廁",
   "Type2": "學校"
 },
 {
   "Country": "臺北市",
   "City": "大安區",
   "Village": "小宇里",
   "Name": "霖澤館 無障礙廁所(2~4F,6~8F)",
   "Address": "10617台北市大安區羅斯福路四段1號",
   "Administration": "臺灣大學霖澤館",
   "Latitude": "25.020372",
   "Longitude": "121.543533",
   "Grade": "優等級",
   "Type": "殘障廁",
   "Type2": "學校"
 },
 {
   "Country": "臺北市",
   "City": "大安區",
   "Village": "小宇里",
   "Name": "圖資系 1~4F無障礙廁所",
   "Address": "10617台北市大安區羅斯福路四段1號",
   "Administration": "臺灣大學卓越研究大樓",
   "Latitude": "25.017832",
   "Longitude": "121.539523",
   "Grade": "優等級",
   "Type": "殘障廁",
   "Type2": "學校"
 },
 {
   "Country": "臺北市",
   "City": "大安區",
   "Village": "小宇里",
   "Name": "圖書館 B1無障礙廁所",
   "Address": "10617台北市大安區羅斯福路四段1號",
   "Administration": "臺灣大學圖書館",
   "Latitude": "25.017580",
   "Longitude": "121.540660",
   "Grade": "優等級",
   "Type": "殘障廁",
   "Type2": "學校"
 },
 {
   "Country": "臺北市",
   "City": "大安區",
   "Village": "小宇里",
   "Name": "圖書館 1~5F無障礙廁所",
   "Address": "10617台北市大安區羅斯福路四段1號",
   "Administration": "臺灣大學圖書館",
   "Latitude": "25.017687",
   "Longitude": "121.541231",
   "Grade": "優等級",
   "Type": "殘障廁",
   "Type2": "學校"
 },
 {
   "Country": "臺北市",
   "City": "大安區",
   "Village": "小宇里",
   "Name": "推廣教育大樓 3F無障礙廁所",
   "Address": "10617台北市大安區羅斯福路四段1號",
   "Administration": "臺灣大學圖書館",
   "Latitude": "25.012000",
   "Longitude": "121.537439",
   "Grade": "優等級",
   "Type": "殘障廁",
   "Type2": "學校"
 },
 {
   "Country": "臺北市",
   "City": "大安區",
   "Village": "小宇里",
   "Name": "永齡生醫工程館 1F無障礙廁所",
   "Address": "10617台北市大安區羅斯福路四段1號",
   "Administration": "臺灣大學永齡生醫工程館",
   "Latitude": "25.013809",
   "Longitude": "121.547223",
   "Grade": "優等級",
   "Type": "殘障廁",
   "Type2": "學校"
 },
 {
   "Country": "臺北市",
   "City": "大安區",
   "Village": "小宇里",
   "Name": "動物科學技術學系 1F無障礙廁所",
   "Address": "10617台北市大安區羅斯福路四段1號",
   "Administration": "臺灣大學動物科學技術學系",
   "Latitude": "25.012439",
   "Longitude": "121.544295",
   "Grade": "優等級",
   "Type": "殘障廁",
   "Type2": "學校"
 },
 {
   "Country": "臺北市",
   "City": "大安區",
   "Village": "小宇里",
   "Name": "公衛學院 1~10F無障礙廁所",
   "Address": "10617台北市大安區羅斯福路四段1號",
   "Administration": "臺灣大學公衛學院",
   "Latitude": "25.41289",
   "Longitude": "121.522888",
   "Grade": "優等級",
   "Type": "殘障廁",
   "Type2": "學校"
 },
 {
   "Country": "臺北市",
   "City": "大安區",
   "Village": "小宇里",
   "Name": "基礎醫學大樓 2F無障礙廁所",
   "Address": "10617台北市大安區羅斯福路四段1號",
   "Administration": "臺灣大學基礎醫學大樓",
   "Latitude": "25.040294",
   "Longitude": "121.519524",
   "Grade": "優等級",
   "Type": "殘障廁",
   "Type2": "學校"
 },
 {
   "Country": "宜蘭縣",
   "City": "蘇澳鎮",
   "Village": "新城里",
   "Name": "蘇澳服務區性別友善廁所",
   "Address": "蘇澳鎮蘇新路101號",
   "Administration": "高速公路局北區養護工程分局頭城工務段",
   "Latitude": "24.61949575",
   "Longitude": "121.8147433",
   "Grade": "特優級",
   "Type": "混合廁所",
   "Type2": "公路車站服務區及休息站"
 },
 {
   "Country": "宜蘭縣",
   "City": "蘇澳鎮",
   "Village": "新城里",
   "Name": "蘇澳服務區無障礙廁所",
   "Address": "蘇澳鎮蘇新路101號",
   "Administration": "高速公路局北區養護工程分局頭城工務段",
   "Latitude": "24.61952013",
   "Longitude": "121.8147701",
   "Grade": "特優級",
   "Type": "無障礙廁所",
   "Type2": "公路車站服務區及休息站"
 },
 {
   "Country": "宜蘭縣",
   "City": "蘇澳鎮",
   "Village": "新城里",
   "Name": "蘇澳服務區女廁",
   "Address": "蘇澳鎮蘇新路101號",
   "Administration": "高速公路局北區養護工程分局頭城工務段",
   "Latitude": "24.61952013",
   "Longitude": "121.8147755",
   "Grade": "特優級",
   "Type": "女廁所",
   "Type2": "公路車站服務區及休息站"
 },
 {
   "Country": "宜蘭縣",
   "City": "蘇澳鎮",
   "Village": "新城里",
   "Name": "蘇澳服務區男廁",
   "Address": "蘇澳鎮蘇新路101號",
   "Administration": "高速公路局北區養護工程分局頭城工務段",
   "Latitude": "24.61954451",
   "Longitude": "121.8147674",
   "Grade": "特優級",
   "Type": "男廁所",
   "Type2": "公路車站服務區及休息站"
 },
 {
   "Country": "宜蘭縣",
   "City": "蘇澳鎮",
   "Village": "長安里",
   "Name": "砲台山風景區女廁",
   "Address": "蘇澳鎮長安里砲台山2號",
   "Administration": "蘇澳鎮公所",
   "Latitude": "24.59338283",
   "Longitude": "121.8567038",
   "Grade": "優等級",
   "Type": "女廁所",
   "Type2": "觀光地區及風景區"
 },
 {
   "Country": "宜蘭縣",
   "City": "蘇澳鎮",
   "Village": "長安里",
   "Name": "砲台山風景區男廁",
   "Address": "蘇澳鎮長安里砲台山2號",
   "Administration": "蘇澳鎮公所",
   "Latitude": "24.59338771",
   "Longitude": "121.8567601",
   "Grade": "優等級",
   "Type": "男廁所",
   "Type2": "觀光地區及風景區"
 },
 {
   "Country": "宜蘭縣",
   "City": "頭城鎮",
   "Village": "新建里",
   "Name": "頭城鎮公所無障礙廁所",
   "Address": "宜蘭縣頭城鎮開蘭路1號",
   "Administration": "頭城鎮公所",
   "Latitude": "24.85470416",
   "Longitude": "121.8212879",
   "Grade": "特優級",
   "Type": "無障礙廁所",
   "Type2": "公家機關設置供民眾使用者"
 },
 {
   "Country": "宜蘭縣",
   "City": "頭城鎮",
   "Village": "新建里",
   "Name": "頭城鎮公所女廁",
   "Address": "宜蘭縣頭城鎮開蘭路1號",
   "Administration": "頭城鎮公所",
   "Latitude": "24.85465548",
   "Longitude": "121.8212664",
   "Grade": "特優級",
   "Type": "女廁所",
   "Type2": "公家機關設置供民眾使用者"
 },
 {
   "Country": "宜蘭縣",
   "City": "頭城鎮",
   "Village": "新建里",
   "Name": "頭城鎮公所男廁",
   "Address": "宜蘭縣頭城鎮開蘭路1號",
   "Administration": "頭城鎮公所",
   "Latitude": "24.85469442",
   "Longitude": "121.8212664",
   "Grade": "特優級",
   "Type": "男廁所",
   "Type2": "公家機關設置供民眾使用者"
 },
 {
   "Country": "宜蘭縣",
   "City": "員山鄉",
   "Village": "員山村",
   "Name": "員山鄉公所4樓無障礙廁所",
   "Address": "宜蘭縣員山鄉員山村員山路一段322號",
   "Administration": "員山鄉公所",
   "Latitude": "24.7435087",
   "Longitude": "121.72328",
   "Grade": "特優級",
   "Type": "無障礙廁",
   "Type2": "公家機關設置供民眾使用者"
 },
 {
   "Country": "宜蘭縣",
   "City": "員山鄉",
   "Village": "員山村",
   "Name": "員山鄉公所4樓右側女廁",
   "Address": "宜蘭縣員山鄉員山村員山路一段322號",
   "Administration": "員山鄉公所",
   "Latitude": "24.74355254",
   "Longitude": "121.7232531",
   "Grade": "特優級",
   "Type": "女廁",
   "Type2": "公家機關設置供民眾使用者"
 },
 {
   "Country": "宜蘭縣",
   "City": "員山鄉",
   "Village": "員山村",
   "Name": "員山鄉公所4樓右側男廁",
   "Address": "宜蘭縣員山鄉員山村員山路一段322號",
   "Administration": "員山鄉公所",
   "Latitude": "24.74359883",
   "Longitude": "121.7232665",
   "Grade": "特優級",
   "Type": "男廁",
   "Type2": "公家機關設置供民眾使用者"
 },
 {
   "Country": "宜蘭縣",
   "City": "員山鄉",
   "Village": "員山村",
   "Name": "員山鄉公所4樓左側女廁",
   "Address": "宜蘭縣員山鄉員山村員山路一段322號",
   "Administration": "員山鄉公所",
   "Latitude": "24.7433528",
   "Longitude": "121.72306",
   "Grade": "特優級",
   "Type": "女廁",
   "Type2": "公家機關設置供民眾使用者"
 },
 {
   "Country": "宜蘭縣",
   "City": "員山鄉",
   "Village": "員山村",
   "Name": "員山鄉公所4樓左側男廁",
   "Address": "宜蘭縣員山鄉員山村員山路一段322號",
   "Administration": "員山鄉公所",
   "Latitude": "24.74340152",
   "Longitude": "121.7231083",
   "Grade": "特優級",
   "Type": "男廁",
   "Type2": "公家機關設置供民眾使用者"
 },
 {
   "Country": "宜蘭縣",
   "City": "員山鄉",
   "Village": "員山村",
   "Name": "員山鄉公所3樓無障礙廁所",
   "Address": "宜蘭縣員山鄉員山村員山路一段322號",
   "Administration": "員山鄉公所",
   "Latitude": "24.74349895",
   "Longitude": "121.7233443",
   "Grade": "特優級",
   "Type": "無障礙廁",
   "Type2": "公家機關設置供民眾使用者"
 },
 {
   "Country": "宜蘭縣",
   "City": "員山鄉",
   "Village": "員山村",
   "Name": "員山鄉公所3樓右側女廁",
   "Address": "宜蘭縣員山鄉員山村員山路一段322號",
   "Administration": "員山鄉公所",
   "Latitude": "24.7435769",
   "Longitude": "121.7232585",
   "Grade": "特優級",
   "Type": "女廁",
   "Type2": "公家機關設置供民眾使用者"
 },
 {
   "Country": "宜蘭縣",
   "City": "員山鄉",
   "Village": "員山村",
   "Name": "員山鄉公所3樓右側男廁",
   "Address": "宜蘭縣員山鄉員山村員山路一段322號",
   "Administration": "員山鄉公所",
   "Latitude": "24.74357203",
   "Longitude": "121.7232746",
   "Grade": "特優級",
   "Type": "男廁",
   "Type2": "公家機關設置供民眾使用者"
 },
 {
   "Country": "宜蘭縣",
   "City": "員山鄉",
   "Village": "員山村",
   "Name": "員山鄉公所3樓左側女廁",
   "Address": "宜蘭縣員山鄉員山村員山路一段322號",
   "Administration": "員山鄉公所",
   "Latitude": "24.74334305",
   "Longitude": "121.7230654",
   "Grade": "特優級",
   "Type": "女廁",
   "Type2": "公家機關設置供民眾使用者"
 },
 {
   "Country": "宜蘭縣",
   "City": "員山鄉",
   "Village": "員山村",
   "Name": "員山鄉公所3樓左側男廁",
   "Address": "宜蘭縣員山鄉員山村員山路一段322號",
   "Administration": "員山鄉公所",
   "Latitude": "24.74339664",
   "Longitude": "121.7230278",
   "Grade": "特優級",
   "Type": "男廁",
   "Type2": "公家機關設置供民眾使用者"
 },
 {
   "Country": "宜蘭縣",
   "City": "員山鄉",
   "Village": "員山村",
   "Name": "員山鄉公所2樓無障礙廁所",
   "Address": "宜蘭縣員山鄉員山村員山路一段322號",
   "Administration": "員山鄉公所",
   "Latitude": "24.74359152",
   "Longitude": "121.7232585",
   "Grade": "特優級",
   "Type": "無障礙廁",
   "Type2": "公家機關設置供民眾使用者"
 },
 {
   "Country": "宜蘭縣",
   "City": "員山鄉",
   "Village": "員山村",
   "Name": "員山鄉公所2樓右側女廁",
   "Address": "宜蘭縣員山鄉員山村員山路一段322號",
   "Administration": "員山鄉公所",
   "Latitude": "24.74359639",
   "Longitude": "121.7232478",
   "Grade": "特優級",
   "Type": "女廁",
   "Type2": "公家機關設置供民眾使用者"
 },
 {
   "Country": "宜蘭縣",
   "City": "員山鄉",
   "Village": "員山村",
   "Name": "員山鄉公所2樓右側男廁",
   "Address": "宜蘭縣員山鄉員山村員山路一段322號",
   "Administration": "員山鄉公所",
   "Latitude": "24.74361588",
   "Longitude": "121.7232585",
   "Grade": "特優級",
   "Type": "男廁",
   "Type2": "公家機關設置供民眾使用者"
 },
 {
   "Country": "宜蘭縣",
   "City": "員山鄉",
   "Village": "員山村",
   "Name": "員山鄉公所2樓左側女廁",
   "Address": "宜蘭縣員山鄉員山村員山路一段322號",
   "Administration": "員山鄉公所",
   "Latitude": "24.74336741",
   "Longitude": "121.7230171",
   "Grade": "特優級",
   "Type": "女廁",
   "Type2": "公家機關設置供民眾使用者"
 },
 {
   "Country": "宜蘭縣",
   "City": "員山鄉",
   "Village": "員山村",
   "Name": "員山鄉公所2樓左側男廁",
   "Address": "宜蘭縣員山鄉員山村員山路一段322號",
   "Administration": "員山鄉公所",
   "Latitude": "24.74339177",
   "Longitude": "121.7229956",
   "Grade": "特優級",
   "Type": "男廁",
   "Type2": "公家機關設置供民眾使用者"
 },
 {
   "Country": "宜蘭縣",
   "City": "員山鄉",
   "Village": "員山村",
   "Name": "員山鄉公所1樓無障礙廁所",
   "Address": "宜蘭縣員山鄉員山村員山路一段322號",
   "Administration": "員山鄉公所",
   "Latitude": "24.74362562",
   "Longitude": "121.7232558",
   "Grade": "特優級",
   "Type": "無障礙廁",
   "Type2": "公家機關設置供民眾使用者"
 },
 {
   "Country": "宜蘭縣",
   "City": "員山鄉",
   "Village": "員山村",
   "Name": "員山鄉公所1樓右側女廁",
   "Address": "宜蘭縣員山鄉員山村員山路一段322號",
   "Administration": "員山鄉公所",
   "Latitude": "24.74364755",
   "Longitude": "121.7232558",
   "Grade": "特優級",
   "Type": "女廁",
   "Type2": "公家機關設置供民眾使用者"
 },
 {
   "Country": "宜蘭縣",
   "City": "員山鄉",
   "Village": "員山村",
   "Name": "員山鄉公所1樓右側男廁",
   "Address": "宜蘭縣員山鄉員山村員山路一段322號",
   "Administration": "員山鄉公所",
   "Latitude": "24.7436305",
   "Longitude": "121.7232746",
   "Grade": "特優級",
   "Type": "男廁",
   "Type2": "公家機關設置供民眾使用者"
 },
 {
   "Country": "宜蘭縣",
   "City": "員山鄉",
   "Village": "員山村",
   "Name": "員山鄉公所1樓左側女廁",
   "Address": "宜蘭縣員山鄉員山村員山路一段322號",
   "Administration": "員山鄉公所",
   "Latitude": "24.74342831",
   "Longitude": "121.7229983",
   "Grade": "特優級",
   "Type": "女廁",
   "Type2": "公家機關設置供民眾使用者"
 },
 {
   "Country": "宜蘭縣",
   "City": "頭城鎮",
   "Village": "大坑里",
   "Name": "大坑景觀台女廁",
   "Address": "宜蘭縣頭城鎮大坑里協天路636巷36-2號",
   "Administration": "灆咖啡",
   "Latitude": "24.85666089",
   "Longitude": "121.8317056",
   "Grade": "特優級",
   "Type": "女廁",
   "Type2": "觀光地區及風景區"
 },
 {
   "Country": "宜蘭縣",
   "City": "頭城鎮",
   "Village": "大坑里",
   "Name": "大坑景觀台男廁",
   "Address": "宜蘭縣頭城鎮大坑里協天路636巷36-2號",
   "Administration": "灆咖啡",
   "Latitude": "24.85657328",
   "Longitude": "121.831727",
   "Grade": "特優級",
   "Type": "男廁",
   "Type2": "觀光地區及風景區"
 },
 {
   "Country": "宜蘭縣",
   "City": "蘇澳鎮",
   "Village": "南正里",
   "Name": "南方澳遊客中心無障礙廁所",
   "Address": "宜蘭縣蘇澳鎮南正里2鄰江夏路85號",
   "Administration": "南方澳遊客中心",
   "Latitude": "24.58435862",
   "Longitude": "121.8646002",
   "Grade": "特優級",
   "Type": "無障礙廁",
   "Type2": "觀光地區及風景區"
 },
 {
   "Country": "宜蘭縣",
   "City": "蘇澳鎮",
   "Village": "南正里",
   "Name": "南方澳遊客中心女廁",
   "Address": "宜蘭縣蘇澳鎮南正里2鄰江夏路85號",
   "Administration": "南方澳遊客中心",
   "Latitude": "24.58428056",
   "Longitude": "121.8645787",
   "Grade": "特優級",
   "Type": "女廁",
   "Type2": "觀光地區及風景區"
 },
 {
   "Country": "宜蘭縣",
   "City": "蘇澳鎮",
   "Village": "南正里",
   "Name": "南方澳遊客中心男廁",
   "Address": "宜蘭縣蘇澳鎮南正里2鄰江夏路85號",
   "Administration": "南方澳遊客中心",
   "Latitude": "24.58444154",
   "Longitude": "121.8644929",
   "Grade": "特優級",
   "Type": "男廁",
   "Type2": "觀光地區及風景區"
 },
 {
   "Country": "宜蘭縣",
   "City": "員山鄉",
   "Village": "湖東村",
   "Name": "員山福園801禮堂女廁",
   "Address": "員山鄉湖東村琍埤路27號",
   "Administration": "宜蘭縣立殯葬管理所",
   "Latitude": "24.75427516",
   "Longitude": "121.7007709",
   "Grade": "特優級",
   "Type": "女廁",
   "Type2": "寺廟教堂等宗教活動場所"
 },
 {
   "Country": "宜蘭縣",
   "City": "員山鄉",
   "Village": "湖東村",
   "Name": "員山福園804禮堂無障礙廁所",
   "Address": "員山鄉湖東村琍埤路27號",
   "Administration": "宜蘭縣立殯葬管理所",
   "Latitude": "24.75531766",
   "Longitude": "121.6992688",
   "Grade": "特優級",
   "Type": "無障礙廁",
   "Type2": "寺廟教堂等宗教活動場所"
 },
 {
   "Country": "宜蘭縣",
   "City": "員山鄉",
   "Village": "湖東村",
   "Name": "員山福園804禮堂女廁",
   "Address": "員山鄉湖東村琍埤路27號",
   "Administration": "宜蘭縣立殯葬管理所",
   "Latitude": "24.75535663",
   "Longitude": "121.6992903",
   "Grade": "特優級",
   "Type": "女廁",
   "Type2": "寺廟教堂等宗教活動場所"
 },
 {
   "Country": "宜蘭縣",
   "City": "員山鄉",
   "Village": "湖東村",
   "Name": "員山福園804禮堂男廁",
   "Address": "員山鄉湖東村琍埤路27號",
   "Administration": "宜蘭縣立殯葬管理所",
   "Latitude": "24.75433362",
   "Longitude": "121.7005348",
   "Grade": "特優級",
   "Type": "男廁",
   "Type2": "寺廟教堂等宗教活動場所"
 },
 {
   "Country": "宜蘭縣",
   "City": "員山鄉",
   "Village": "湖東村",
   "Name": "員山福園803禮堂無障礙廁所",
   "Address": "員山鄉湖東村琍埤路27號",
   "Administration": "宜蘭縣立殯葬管理所",
   "Latitude": "24.75477205",
   "Longitude": "121.6999018",
   "Grade": "特優級",
   "Type": "無障礙廁",
   "Type2": "寺廟教堂等宗教活動場所"
 },
 {
   "Country": "宜蘭縣",
   "City": "員山鄉",
   "Village": "湖東村",
   "Name": "員山福園803禮堂女廁",
   "Address": "員山鄉湖東村琍埤路27號",
   "Administration": "宜蘭縣立殯葬管理所",
   "Latitude": "24.75484025",
   "Longitude": "121.6999555",
   "Grade": "特優級",
   "Type": "女廁",
   "Type2": "寺廟教堂等宗教活動場所"
 },
 {
   "Country": "宜蘭縣",
   "City": "員山鄉",
   "Village": "湖東村",
   "Name": "員山福園803禮堂男廁",
   "Address": "員山鄉湖東村琍埤路27號",
   "Administration": "宜蘭縣立殯葬管理所",
   "Latitude": "24.75447002",
   "Longitude": "121.7004168",
   "Grade": "特優級",
   "Type": "男廁",
   "Type2": "寺廟教堂等宗教活動場所"
 },
 {
   "Country": "宜蘭縣",
   "City": "員山鄉",
   "Village": "湖東村",
   "Name": "員山福園802禮堂女廁",
   "Address": "員山鄉湖東村琍埤路27號",
   "Administration": "宜蘭縣立殯葬管理所",
   "Latitude": "24.75490845",
   "Longitude": "121.7008781",
   "Grade": "特優級",
   "Type": "女廁",
   "Type2": "寺廟教堂等宗教活動場所"
 },
 {
   "Country": "宜蘭縣",
   "City": "員山鄉",
   "Village": "湖東村",
   "Name": "員山福園802禮堂男廁",
   "Address": "員山鄉湖東村琍埤路27號",
   "Administration": "宜蘭縣立殯葬管理所",
   "Latitude": "24.75494255",
   "Longitude": "121.7008245",
   "Grade": "特優級",
   "Type": "男廁",
   "Type2": "寺廟教堂等宗教活動場所"
 },
 {
   "Country": "宜蘭縣",
   "City": "員山鄉",
   "Village": "湖東村",
   "Name": "員山福園801禮堂男廁",
   "Address": "員山鄉湖東村琍埤路27號",
   "Administration": "宜蘭縣立殯葬管理所",
   "Latitude": "24.75461617",
   "Longitude": "121.7009425",
   "Grade": "特優級",
   "Type": "男廁",
   "Type2": "寺廟教堂等宗教活動場所"
 },
 {
   "Country": "宜蘭縣",
   "City": "員山鄉",
   "Village": "湖西村",
   "Name": "崩山湖帝恩廟無障礙廁所",
   "Address": "宜蘭縣員山鄉湖西村隘界六路195號",
   "Administration": "崩山湖帝恩廟管理委員會",
   "Latitude": "24.75047534",
   "Longitude": "121.6767061",
   "Grade": "特優級",
   "Type": "無障礙廁",
   "Type2": "寺廟教堂等宗教活動場所"
 },
 {
   "Country": "宜蘭縣",
   "City": "員山鄉",
   "Village": "湖西村",
   "Name": "崩山湖帝恩廟女廁",
   "Address": "宜蘭縣員山鄉湖西村隘界六路195號",
   "Administration": "崩山湖帝恩廟管理委員會",
   "Latitude": "24.75039739",
   "Longitude": "121.6769743",
   "Grade": "特優級",
   "Type": "女廁",
   "Type2": "寺廟教堂等宗教活動場所"
 },
 {
   "Country": "宜蘭縣",
   "City": "員山鄉",
   "Village": "湖西村",
   "Name": "崩山湖帝恩廟男廁",
   "Address": "宜蘭縣員山鄉湖西村隘界六路195號",
   "Administration": "崩山湖帝恩廟管理委員會",
   "Latitude": "24.74918922",
   "Longitude": "121.6769528",
   "Grade": "特優級",
   "Type": "男廁",
   "Type2": "寺廟教堂等宗教活動場所"
 },
 {
   "Country": "宜蘭縣",
   "City": "員山鄉",
   "Village": "枕山村",
   "Name": "枕山協進廟女廁",
   "Address": "宜蘭縣員山鄉枕山村枕山路113-6號",
   "Administration": "枕山協進廟管理員會",
   "Latitude": "24.77411029",
   "Longitude": "121.7207909",
   "Grade": "特優級",
   "Type": "女廁",
   "Type2": "寺廟教堂等宗教活動場所"
 },
 {
   "Country": "宜蘭縣",
   "City": "員山鄉",
   "Village": "枕山村",
   "Name": "枕山協進廟男廁",
   "Address": "宜蘭縣員山鄉枕山村枕山路113-6號",
   "Administration": "枕山協進廟管理員會",
   "Latitude": "24.77412978",
   "Longitude": "121.7208445",
   "Grade": "特優級",
   "Type": "男廁",
   "Type2": "寺廟教堂等宗教活動場所"
 },
 {
   "Country": "宜蘭縣",
   "City": "員山鄉",
   "Village": "七賢村",
   "Name": "七賢再興宮無障礙廁所",
   "Address": "宜蘭縣員山鄉七賢村浮洲路11號",
   "Administration": "七賢再興宮管理委員會",
   "Latitude": "24.71864971",
   "Longitude": "121.7429781",
   "Grade": "特優級",
   "Type": "無障礙廁",
   "Type2": "寺廟教堂等宗教活動場所"
 },
 {
   "Country": "宜蘭縣",
   "City": "員山鄉",
   "Village": "七賢村",
   "Name": "七賢再興宮女廁",
   "Address": "宜蘭縣員山鄉七賢村浮洲路11號",
   "Administration": "七賢再興宮管理委員會",
   "Latitude": "24.71863996",
   "Longitude": "121.7430425",
   "Grade": "特優級",
   "Type": "女廁",
   "Type2": "寺廟教堂等宗教活動場所"
 },
 {
   "Country": "宜蘭縣",
   "City": "員山鄉",
   "Village": "七賢村",
   "Name": "七賢再興宮男廁",
   "Address": "宜蘭縣員山鄉七賢村浮洲路11號",
   "Administration": "七賢再興宮管理委員會",
   "Latitude": "24.71863022",
   "Longitude": "121.743021",
   "Grade": "特優級",
   "Type": "男廁",
   "Type2": "寺廟教堂等宗教活動場所"
 },
 {
   "Country": "宜蘭縣",
   "City": "員山鄉",
   "Village": "員山村",
   "Name": "員山鄉玄開廟無障礙廁所",
   "Address": "宜蘭縣員山鄉員山路一段100巷9弄7號",
   "Administration": "玄開廟管理委員會",
   "Latitude": "24.7477277",
   "Longitude": "121.7288268",
   "Grade": "特優級",
   "Type": "無障礙廁",
   "Type2": "寺廟教堂等宗教活動場所"
 },
 {
   "Country": "宜蘭縣",
   "City": "員山鄉",
   "Village": "員山村",
   "Name": "員山鄉玄開廟女廁",
   "Address": "宜蘭縣員山鄉員山路一段100巷9弄7號",
   "Administration": "玄開廟管理委員會",
   "Latitude": "24.7477277",
   "Longitude": "121.7287838",
   "Grade": "特優級",
   "Type": "女廁",
   "Type2": "寺廟教堂等宗教活動場所"
 },
 {
   "Country": "宜蘭縣",
   "City": "員山鄉",
   "Village": "員山村",
   "Name": "員山鄉玄開廟男廁",
   "Address": "宜蘭縣員山鄉員山路一段100巷9弄7號",
   "Administration": "玄開廟管理委員會",
   "Latitude": "24.74770822",
   "Longitude": "121.7287302",
   "Grade": "特優級",
   "Type": "男廁",
   "Type2": "寺廟教堂等宗教活動場所"
 },
 {
   "Country": "宜蘭縣",
   "City": "員山鄉",
   "Village": "同樂村",
   "Name": "大眾廟男女混合廁",
   "Address": "264宜蘭縣員山鄉永同路一段266號",
   "Administration": "大眾廟管理委員會",
   "Latitude": "24.76354039",
   "Longitude": "121.7250824",
   "Grade": "特優級",
   "Type": "混合廁",
   "Type2": "寺廟教堂等宗教活動場所"
 },
 {
   "Country": "宜蘭縣",
   "City": "五結鄉",
   "Village": "錦眾村",
   "Name": "綠舞遊客中心2F女廁",
   "Address": "宜蘭縣五結鄉五濱路二段459號",
   "Administration": "綠舞莊園日式主題遊樂區",
   "Latitude": "24.69685625",
   "Longitude": "121.8285084",
   "Grade": "特優級",
   "Type": "女廁",
   "Type2": "文化育樂活動場所"
 },
 {
   "Country": "宜蘭縣",
   "City": "五結鄉",
   "Village": "錦眾村",
   "Name": "綠舞遊客中心2F男廁",
   "Address": "宜蘭縣五結鄉五濱路二段459號",
   "Administration": "綠舞莊園日式主題遊樂區",
   "Latitude": "24.69482875",
   "Longitude": "121.83074",
   "Grade": "特優級",
   "Type": "男廁",
   "Type2": "文化育樂活動場所"
 },
 {
   "Country": "宜蘭縣",
   "City": "五結鄉",
   "Village": "錦眾村",
   "Name": "綠舞遊客中心1F無障礙廁所",
   "Address": "宜蘭縣五結鄉五濱路二段459號",
   "Administration": "綠舞莊園日式主題遊樂區",
   "Latitude": "24.69529664",
   "Longitude": "121.830225",
   "Grade": "特優級",
   "Type": "無障礙廁",
   "Type2": "文化育樂活動場所"
 },
 {
   "Country": "宜蘭縣",
   "City": "五結鄉",
   "Village": "錦眾村",
   "Name": "綠舞遊客中心1F女廁",
   "Address": "宜蘭縣五結鄉五濱路二段459號",
   "Administration": "綠舞莊園日式主題遊樂區",
   "Latitude": "24.69568654",
   "Longitude": "121.8306541",
   "Grade": "特優級",
   "Type": "女廁",
   "Type2": "文化育樂活動場所"
 },
 {
   "Country": "宜蘭縣",
   "City": "五結鄉",
   "Village": "錦眾村",
   "Name": "綠舞遊客中心1F男廁",
   "Address": "宜蘭縣五結鄉五濱路二段459號",
   "Administration": "綠舞莊園日式主題遊樂區",
   "Latitude": "24.69646635",
   "Longitude": "121.82971",
   "Grade": "特優級",
   "Type": "男廁",
   "Type2": "文化育樂活動場所"
 },
 {
   "Country": "宜蘭縣",
   "City": "五結鄉",
   "Village": "錦眾村",
   "Name": "綠舞輕食館2F男廁",
   "Address": "宜蘭縣五結鄉五濱路二段459號",
   "Administration": "綠舞莊園日式主題遊樂區",
   "Latitude": "24.69576452",
   "Longitude": "121.8303967",
   "Grade": "特優級",
   "Type": "男廁",
   "Type2": "文化育樂活動場所"
 },
 {
   "Country": "宜蘭縣",
   "City": "五結鄉",
   "Village": "錦眾村",
   "Name": "綠舞輕食館1F無障礙廁所",
   "Address": "宜蘭縣五結鄉五濱路二段459號",
   "Administration": "綠舞莊園日式主題遊樂區",
   "Latitude": "24.69537462",
   "Longitude": "121.8308258",
   "Grade": "特優級",
   "Type": "無障礙廁",
   "Type2": "文化育樂活動場所"
 },
 {
   "Country": "宜蘭縣",
   "City": "五結鄉",
   "Village": "錦眾村",
   "Name": "綠舞輕食館1F女廁",
   "Address": "宜蘭縣五結鄉五濱路二段459號",
   "Administration": "綠舞莊園日式主題遊樂區",
   "Latitude": "24.69475077",
   "Longitude": "121.8311691",
   "Grade": "特優級",
   "Type": "女廁",
   "Type2": "文化育樂活動場所"
 },
 {
   "Country": "宜蘭縣",
   "City": "五結鄉",
   "Village": "錦眾村",
   "Name": "綠舞輕食館1F男廁",
   "Address": "宜蘭縣五結鄉五濱路二段459號",
   "Administration": "綠舞莊園日式主題遊樂區",
   "Latitude": "24.69599847",
   "Longitude": "121.8304825",
   "Grade": "特優級",
   "Type": "男廁",
   "Type2": "文化育樂活動場所"
 },
 {
   "Country": "宜蘭縣",
   "City": "五結鄉",
   "Village": "錦眾村",
   "Name": "綠舞展演廳外無障礙廁所",
   "Address": "宜蘭縣五結鄉五濱路二段459號",
   "Administration": "綠舞莊園日式主題遊樂區",
   "Latitude": "24.6954526",
   "Longitude": "121.83074",
   "Grade": "特優級",
   "Type": "無障礙廁",
   "Type2": "文化育樂活動場所"
 },
 {
   "Country": "宜蘭縣",
   "City": "五結鄉",
   "Village": "錦眾村",
   "Name": "綠舞展演廳外女廁",
   "Address": "宜蘭縣五結鄉五濱路二段459號",
   "Administration": "綠舞莊園日式主題遊樂區",
   "Latitude": "24.69475077",
   "Longitude": "121.8300533",
   "Grade": "特優級",
   "Type": "女廁",
   "Type2": "文化育樂活動場所"
 },
 {
   "Country": "宜蘭縣",
   "City": "五結鄉",
   "Village": "錦眾村",
   "Name": "綠舞展演廳外男廁",
   "Address": "宜蘭縣五結鄉五濱路二段459號",
   "Administration": "綠舞莊園日式主題遊樂區",
   "Latitude": "24.69490674",
   "Longitude": "121.82971",
   "Grade": "特優級",
   "Type": "男廁",
   "Type2": "文化育樂活動場所"
 },
 {
   "Country": "宜蘭縣",
   "City": "五結鄉",
   "Village": "錦眾村",
   "Name": "綠舞美術館B1無障礙廁所",
   "Address": "宜蘭縣五結鄉五濱路二段459號",
   "Administration": "綠舞莊園日式主題遊樂區",
   "Latitude": "24.69428288",
   "Longitude": "121.8277359",
   "Grade": "特優級",
   "Type": "無障礙廁",
   "Type2": "文化育樂活動場所"
 },
 {
   "Country": "宜蘭縣",
   "City": "五結鄉",
   "Village": "錦眾村",
   "Name": "綠舞美術館1F女廁",
   "Address": "宜蘭縣五結鄉五濱路二段459號",
   "Administration": "綠舞莊園日式主題遊樂區",
   "Latitude": "24.69373701",
   "Longitude": "121.8293667",
   "Grade": "特優級",
   "Type": "女廁",
   "Type2": "文化育樂活動場所"
 },
 {
   "Country": "宜蘭縣",
   "City": "五結鄉",
   "Village": "錦眾村",
   "Name": "綠舞美術館1F男廁",
   "Address": "宜蘭縣五結鄉五濱路二段459號",
   "Administration": "綠舞莊園日式主題遊樂區",
   "Latitude": "24.69342509",
   "Longitude": "121.8289375",
   "Grade": "特優級",
   "Type": "男廁",
   "Type2": "文化育樂活動場所"
 },
 {
   "Country": "宜蘭縣",
   "City": "五結鄉",
   "Village": "錦眾村",
   "Name": "綠舞售票口B2女廁",
   "Address": "宜蘭縣五結鄉五濱路二段459號",
   "Administration": "綠舞莊園日式主題遊樂區",
   "Latitude": "24.69358105",
   "Longitude": "121.82971",
   "Grade": "特優級",
   "Type": "女廁",
   "Type2": "文化育樂活動場所"
 },
 {
   "Country": "宜蘭縣",
   "City": "五結鄉",
   "Village": "錦眾村",
   "Name": "綠舞售票口B2男廁",
   "Address": "宜蘭縣五結鄉五濱路二段459號",
   "Administration": "綠舞莊園日式主題遊樂區",
   "Latitude": "24.69389298",
   "Longitude": "121.8306541",
   "Grade": "特優級",
   "Type": "男廁",
   "Type2": "文化育樂活動場所"
 },
 {
   "Country": "宜蘭縣",
   "City": "五結鄉",
   "Village": "錦眾村",
   "Name": "綠舞售票口B1女廁",
   "Address": "宜蘭縣五結鄉五濱路二段459號",
   "Administration": "綠舞莊園日式主題遊樂區",
   "Latitude": "24.693815",
   "Longitude": "121.8277359",
   "Grade": "特優級",
   "Type": "女廁",
   "Type2": "文化育樂活動場所"
 },
 {
   "Country": "宜蘭縣",
   "City": "五結鄉",
   "Village": "錦眾村",
   "Name": "綠舞售票口B1男廁",
   "Address": "宜蘭縣五結鄉五濱路二段459號",
   "Administration": "綠舞莊園日式主題遊樂區",
   "Latitude": "24.693815",
   "Longitude": "121.8309975",
   "Grade": "特優級",
   "Type": "男廁",
   "Type2": "文化育樂活動場所"
 },
 {
   "Country": "宜蘭縣",
   "City": "五結鄉",
   "Village": "錦眾村",
   "Name": "綠舞售票口1樓無障礙廁所",
   "Address": "宜蘭縣五結鄉五濱路二段459號",
   "Administration": "綠舞莊園日式主題遊樂區",
   "Latitude": "24.69342509",
   "Longitude": "121.8309116",
   "Grade": "特優級",
   "Type": "無障礙廁",
   "Type2": "文化育樂活動場所"
 },
 {
   "Country": "宜蘭縣",
   "City": "五結鄉",
   "Village": "錦眾村",
   "Name": "綠舞售票口1樓女廁",
   "Address": "宜蘭縣五結鄉五濱路二段459號.    ",
   "Administration": "綠舞莊園日式主題遊樂區",
   "Latitude": "24.69319114",
   "Longitude": "121.8309116",
   "Grade": "特優級",
   "Type": "女廁",
   "Type2": "文化育樂活動場所"
 },
 {
   "Country": "宜蘭縣",
   "City": "五結鄉",
   "Village": "錦眾村",
   "Name": "綠舞售票口1樓男廁",
   "Address": "宜蘭縣五結鄉五濱路二段459號",
   "Administration": "綠舞莊園日式主題遊樂區",
   "Latitude": "24.69389298",
   "Longitude": "121.8299246",
   "Grade": "特優級",
   "Type": "男廁",
   "Type2": "文化育樂活動場所"
 },
 {
   "Country": "宜蘭縣",
   "City": "冬山鄉",
   "Village": "珍珠村",
   "Name": "生態綠舟管理棟殘障廁所",
   "Address": "",
   "Administration": "森林公園遊憩管理科",
   "Latitude": "24.63886475",
   "Longitude": "121.7894983",
   "Grade": "特優級",
   "Type": "無障礙廁",
   "Type2": "觀光地區及風景區"
 },
 {
   "Country": "宜蘭縣",
   "City": "冬山鄉",
   "Village": "珍珠村",
   "Name": "生態綠舟管理棟男廁",
   "Address": "",
   "Administration": "森林公園遊憩管理科",
   "Latitude": "24.63909879",
   "Longitude": "121.78967",
   "Grade": "特優級",
   "Type": "男廁",
   "Type2": "觀光地區及風景區"
 },
 {
   "Country": "宜蘭縣",
   "City": "冬山鄉",
   "Village": "珍珠村",
   "Name": "生態綠舟管理棟女廁",
   "Address": "",
   "Administration": "森林公園遊憩管理科",
   "Latitude": "24.63890375",
   "Longitude": "121.7891979",
   "Grade": "特優級",
   "Type": "女廁",
   "Type2": "觀光地區及風景區"
 },
 {
   "Country": "宜蘭縣",
   "City": "冬山鄉",
   "Village": "珍珠村",
   "Name": "生態綠舟怡然聚落殘障廁所",
   "Address": "",
   "Administration": "森林公園遊憩管理科",
   "Latitude": "24.63851367",
   "Longitude": "121.7891121",
   "Grade": "特優級",
   "Type": "無障礙廁",
   "Type2": "觀光地區及風景區"
 },
 {
   "Country": "宜蘭縣",
   "City": "冬山鄉",
   "Village": "珍珠村",
   "Name": "生態綠舟怡然聚落男廁",
   "Address": "",
   "Administration": "森林公園遊憩管理科",
   "Latitude": "24.63882574",
   "Longitude": "121.7889404",
   "Grade": "特優級",
   "Type": "男廁",
   "Type2": "觀光地區及風景區"
 },
 {
   "Country": "宜蘭縣",
   "City": "冬山鄉",
   "Village": "珍珠村",
   "Name": "生態綠舟怡然聚落女廁",
   "Address": "",
   "Administration": "森林公園遊憩管理科",
   "Latitude": "24.63866971",
   "Longitude": "121.7889404",
   "Grade": "特優級",
   "Type": "女廁",
   "Type2": "觀光地區及風景區"
 },
 {
   "Country": "宜蘭縣",
   "City": "冬山鄉",
   "Village": "珍珠村",
   "Name": "生態綠舟休憩站殘障廁所",
   "Address": "",
   "Administration": "森林公園遊憩管理科",
   "Latitude": "24.63785053",
   "Longitude": "121.7891121",
   "Grade": "特優級",
   "Type": "無障礙廁",
   "Type2": "觀光地區及風景區"
 },
 {
   "Country": "宜蘭縣",
   "City": "冬山鄉",
   "Village": "珍珠村",
   "Name": "生態綠舟休憩站男廁",
   "Address": "",
   "Administration": "森林公園遊憩管理科",
   "Latitude": "24.63812359",
   "Longitude": "121.7889833",
   "Grade": "特優級",
   "Type": "男廁",
   "Type2": "觀光地區及風景區"
 },
 {
   "Country": "宜蘭縣",
   "City": "冬山鄉",
   "Village": "珍珠村",
   "Name": "生態綠舟休憩站女廁",
   "Address": "",
   "Administration": "森林公園遊憩管理科",
   "Latitude": "24.63804557",
   "Longitude": "121.7887688",
   "Grade": "特優級",
   "Type": "女廁",
   "Type2": "觀光地區及風景區"
 },
 {
   "Country": "宜蘭縣",
   "City": "冬山鄉",
   "Village": "珍珠村",
   "Name": "生態綠舟環境教育中心殘障廁所",
   "Address": "",
   "Administration": "森林公園遊憩管理科",
   "Latitude": "24.63808458",
   "Longitude": "121.7879963",
   "Grade": "特優級",
   "Type": "無障礙廁",
   "Type2": "觀光地區及風景區"
 },
 {
   "Country": "宜蘭縣",
   "City": "冬山鄉",
   "Village": "珍珠村",
   "Name": "生態綠舟環境教育中心男廁",
   "Address": "",
   "Administration": "森林公園遊憩管理科",
   "Latitude": "24.63835764",
   "Longitude": "121.7882967",
   "Grade": "特優級",
   "Type": "男廁",
   "Type2": "觀光地區及風景區"
 },
 {
   "Country": "宜蘭縣",
   "City": "冬山鄉",
   "Village": "珍珠村",
   "Name": "生態綠舟環境教育中心女廁",
   "Address": "",
   "Administration": "森林公園遊憩管理科",
   "Latitude": "24.63849417",
   "Longitude": "121.7876959",
   "Grade": "特優級",
   "Type": "女廁",
   "Type2": "觀光地區及風景區"
 },
 {
   "Country": "花蓮縣",
   "City": "壽豐鄉",
   "Village": "豐坪村",
   "Name": "7-11豐坪門市女廁",
   "Address": "花蓮縣壽豐鄉豐坪村豐坪路二段五之一號一樓",
   "Administration": "7-11統一超商",
   "Latitude": "23.83150858",
   "Longitude": "121.5073514",
   "Grade": "特優級",
   "Type": "女廁所",
   "Type2": "超市"
 },
 {
   "Country": "花蓮縣",
   "City": "壽豐鄉",
   "Village": "豐坪村",
   "Name": "7-11豐坪門市男廁",
   "Address": "花蓮縣壽豐鄉豐坪村豐坪路二段五之一號一樓",
   "Administration": "7-11統一超市",
   "Latitude": "23.83094979",
   "Longitude": "121.5063871",
   "Grade": "特優級",
   "Type": "男廁所",
   "Type2": "超市"
 },
 {
   "Country": "花蓮縣",
   "City": "豐濱鄉",
   "Village": "豐濱村",
   "Name": "豐濱鄉公所三樓女廁",
   "Address": "花蓮縣豐濱鄉豐濱村光豐路三二號",
   "Administration": "豐濱鄉公所",
   "Latitude": "23.60046695",
   "Longitude": "121.5212989",
   "Grade": "特優級",
   "Type": "女廁所",
   "Type2": "公家機關設置供民眾使用者"
 },
 {
   "Country": "花蓮縣",
   "City": "豐濱鄉",
   "Village": "豐濱村",
   "Name": "豐濱鄉公所三樓男廁",
   "Address": "花蓮縣豐濱鄉豐濱村光豐路三二號",
   "Administration": "豐濱鄉公所",
   "Latitude": "23.60062426",
   "Longitude": "121.5215349",
   "Grade": "特優級",
   "Type": "男廁所",
   "Type2": "公家機關設置供民眾使用者"
 },
 {
   "Country": "花蓮縣",
   "City": "豐濱鄉",
   "Village": "豐濱村",
   "Name": "豐濱鄉公所二樓女廁",
   "Address": "花蓮縣豐濱鄉豐濱村光豐路三二號",
   "Administration": "豐濱鄉公所",
   "Latitude": "23.60040797",
   "Longitude": "121.5212345",
   "Grade": "特優級",
   "Type": "女廁所",
   "Type2": "公家機關設置供民眾使用者"
 },
 {
   "Country": "花蓮縣",
   "City": "豐濱鄉",
   "Village": "豐濱村",
   "Name": "豐濱鄉公所二樓男廁",
   "Address": "花蓮縣豐濱鄉豐濱村光豐路三二號",
   "Administration": "豐濱鄉公所",
   "Latitude": "23.60102735",
   "Longitude": "121.5211272",
   "Grade": "特優級",
   "Type": "男廁所",
   "Type2": "公家機關設置供民眾使用者"
 },
 {
   "Country": "花蓮縣",
   "City": "豐濱鄉",
   "Village": "靜浦村",
   "Name": "奚卜蘭遊客中心女廁",
   "Address": "花蓮縣豐濱鄉靜浦村靜浦八之一號",
   "Administration": "東管處",
   "Latitude": "23.46489973",
   "Longitude": "121.4889622",
   "Grade": "優等級",
   "Type": "女廁",
   "Type2": "觀光地區及風景區"
 },
 {
   "Country": "花蓮縣",
   "City": "豐濱鄉",
   "Village": "靜浦村",
   "Name": "奚卜蘭遊客中心男廁",
   "Address": "花蓮縣豐濱鄉靜浦村靜浦八之一號",
   "Administration": "東管處",
   "Latitude": "23.46450607",
   "Longitude": "121.4892197",
   "Grade": "優等級",
   "Type": "男廁",
   "Type2": "觀光地區及風景區"
 },
 {
   "Country": "花蓮縣",
   "City": "花蓮市",
   "Village": "主計里",
   "Name": "花蓮市市立殯儀館-女廁",
   "Address": "花蓮縣花蓮市主計里博愛街一○之三號",
   "Administration": "花蓮市公所清潔隊",
   "Latitude": "23.96961691",
   "Longitude": "121.6117549",
   "Grade": "優等級",
   "Type": "女廁",
   "Type2": "公營事業機構設置供民眾使用者及其他"
 },
 {
   "Country": "花蓮縣",
   "City": "花蓮市",
   "Village": "主計里",
   "Name": "花蓮市市立殯儀館-男廁",
   "Address": "花蓮縣花蓮市主計里博愛街一○之三號",
   "Administration": "花蓮市公所清潔隊",
   "Latitude": "23.969509",
   "Longitude": "121.6117454",
   "Grade": "優等級",
   "Type": "男廁",
   "Type2": "公營事業機構設置供民眾使用者及其他"
 },
 {
   "Country": "花蓮縣",
   "City": "花蓮市",
   "Village": "民權里",
   "Name": "烏克麗麗公園-女廁",
   "Address": "花蓮縣花蓮市民權里北濱街一一一之一號",
   "Administration": "花蓮市公所清潔隊",
   "Latitude": "23.97769732",
   "Longitude": "121.6156405",
   "Grade": "優等級",
   "Type": "女廁",
   "Type2": "公園"
 },
 {
   "Country": "花蓮縣",
   "City": "花蓮市",
   "Village": "民權里",
   "Name": "烏克麗麗公園-男廁",
   "Address": "花蓮縣花蓮市民權里北濱街一一一之一號",
   "Administration": "花蓮市公所清潔隊",
   "Latitude": "23.97760659",
   "Longitude": "121.6155529",
   "Grade": "優等級",
   "Type": "男廁",
   "Type2": "公園"
 },
 {
   "Country": "花蓮縣",
   "City": "花蓮市",
   "Village": "民生里",
   "Name": "將軍府公廁",
   "Address": "花蓮縣花蓮市民生里中正路六二二巷六號",
   "Administration": "民生社區發展協會",
   "Latitude": "23.98033186",
   "Longitude": "121.6131485",
   "Grade": "優等級",
   "Type": "混合廁",
   "Type2": "觀光地區及風景區"
 },
 {
   "Country": "南投縣",
   "City": "水里鄉",
   "Village": "中央村",
   "Name": "水里市場3樓男廁",
   "Address": "",
   "Administration": "水里鄉公所",
   "Latitude": "23.81576586",
   "Longitude": "120.8541638",
   "Grade": "不合格",
   "Type": "男廁所",
   "Type2": "市場"
 },
 {
   "Country": "南投縣",
   "City": "水里鄉",
   "Village": "中央村",
   "Name": "水里市場3樓女廁",
   "Address": "",
   "Administration": "水里鄉公所",
   "Latitude": "23.8157585",
   "Longitude": "120.8541638",
   "Grade": "不合格",
   "Type": "女廁所",
   "Type2": "市場"
 },
 {
   "Country": "南投縣",
   "City": "水里鄉",
   "Village": "中央村",
   "Name": "水里市場2樓男廁",
   "Address": "",
   "Administration": "水里鄉公所",
   "Latitude": "23.81572169",
   "Longitude": "120.8538768",
   "Grade": "不合格",
   "Type": "男廁所",
   "Type2": "市場"
 },
 {
   "Country": "南投縣",
   "City": "埔里鎮",
   "Village": "南門里",
   "Name": "埔里鎮第三市場右側男廁",
   "Address": "埔里第三市場",
   "Administration": "埔里鎮公所建設課",
   "Latitude": "23.96268075",
   "Longitude": "120.9672832",
   "Grade": "不合格",
   "Type": "男廁所",
   "Type2": "市場"
 },
 {
   "Country": "南投縣",
   "City": "埔里鎮",
   "Village": "南門里",
   "Name": "埔里鎮第三市場右側女廁",
   "Address": "埔里第三市場",
   "Administration": "埔里鎮公所建設課",
   "Latitude": "23.96272732",
   "Longitude": "120.9673449",
   "Grade": "不合格",
   "Type": "女廁所",
   "Type2": "市場"
 },
 {
   "Country": "南投縣",
   "City": "草屯鎮",
   "Village": "和平里",
   "Name": "草屯鎮公有市場無障礙公廁",
   "Address": "草屯鎮和平里",
   "Administration": "草屯鎮公所公有市場",
   "Latitude": "23.97805759",
   "Longitude": "120.6849217",
   "Grade": "優等級",
   "Type": "無障礙廁所",
   "Type2": "市場"
 },
 {
   "Country": "南投縣",
   "City": "草屯鎮",
   "Village": "和平里",
   "Name": "草屯鎮公有市場女廁",
   "Address": "草屯鎮和平里",
   "Administration": "草屯鎮公所公有市場",
   "Latitude": "23.9780674",
   "Longitude": "120.6848896",
   "Grade": "優等級",
   "Type": "女廁所",
   "Type2": "市場"
 },
 {
   "Country": "南投縣",
   "City": "草屯鎮",
   "Village": "和平里",
   "Name": "草屯鎮公有市場男廁",
   "Address": "草屯鎮和平里",
   "Administration": "草屯鎮公所公有市場",
   "Latitude": "23.9780772",
   "Longitude": "120.6849164",
   "Grade": "優等級",
   "Type": "男廁所",
   "Type2": "市場"
 },
 {
   "Country": "南投縣",
   "City": "名間鄉",
   "Village": "南雅村",
   "Name": "名間鄉公有零售市場-男廁",
   "Address": "南投縣名間鄉彰南路",
   "Administration": "名間鄉公所市場",
   "Latitude": "23.8373282",
   "Longitude": "120.7027531",
   "Grade": "特優級",
   "Type": "男廁所",
   "Type2": "市場"
 },
 {
   "Country": "南投縣",
   "City": "名間鄉",
   "Village": "南雅村",
   "Name": "名間鄉公有零售市場-女廁",
   "Address": "南投縣名間鄉彰南路",
   "Administration": "名間鄉公所市場",
   "Latitude": "23.83717118",
   "Longitude": "120.702796",
   "Grade": "特優級",
   "Type": "女廁所",
   "Type2": "市場"
 },
 {
   "Country": "南投縣",
   "City": "南投市",
   "Village": "龍泉里",
   "Name": "南陽臨時攤販集中場公廁",
   "Address": "南投縣南投市龍泉里民權街二之一號",
   "Administration": "南投市公所市場管理所",
   "Latitude": "23.90886452",
   "Longitude": "120.6850237",
   "Grade": "普通級",
   "Type": "混合廁所",
   "Type2": "市場"
 },
 {
   "Country": "南投縣",
   "City": "南投市",
   "Village": "南投里",
   "Name": "南投市公有零售市場2樓公廁",
   "Address": "南投縣南投市南投里民權街一五七號",
   "Administration": "南投市公所市場管理所",
   "Latitude": "23.90885103",
   "Longitude": "120.6843719",
   "Grade": "普通級",
   "Type": "混合廁所",
   "Type2": "市場"
 },
 {
   "Country": "南投縣",
   "City": "南投市",
   "Village": "南投里",
   "Name": "南投市公有零售市場1樓公廁",
   "Address": "南投縣南投市南投里民權街一五七號",
   "Administration": "南投市公所市場管理所",
   "Latitude": "23.90883264",
   "Longitude": "120.6843746",
   "Grade": "普通級",
   "Type": "混合廁所",
   "Type2": "市場"
 },
 {
   "Country": "南投縣",
   "City": "南投市",
   "Village": "三興里",
   "Name": "南投市清潔隊女廁",
   "Address": "南投縣南投市三興里嶺興路三六號",
   "Administration": "南投市公所清潔隊",
   "Latitude": "23.90004173",
   "Longitude": "120.6587005",
   "Grade": "優等級",
   "Type": "女廁所",
   "Type2": "公家機關設置供民眾使用者"
 },
 {
   "Country": "南投縣",
   "City": "南投市",
   "Village": "三興里",
   "Name": "南投市清潔隊男廁",
   "Address": "南投縣南投市三興里嶺興路三六號",
   "Administration": "南投市公所清潔隊",
   "Latitude": "23.89968861",
   "Longitude": "120.659194",
   "Grade": "優等級",
   "Type": "男廁所",
   "Type2": "公家機關設置供民眾使用者"
 },
 {
   "Country": "南投縣",
   "City": "水里鄉",
   "Village": "中央村",
   "Name": "水里市場2樓女廁",
   "Address": "",
   "Administration": "水里鄉公所",
   "Latitude": "23.81573642",
   "Longitude": "120.8542442",
   "Grade": "不合格",
   "Type": "女廁所",
   "Type2": "市場"
 },
 {
   "Country": "南投縣",
   "City": "水里鄉",
   "Village": "中央村",
   "Name": "水里市場1樓女廁",
   "Address": "",
   "Administration": "水里鄉公所",
   "Latitude": "23.81573642",
   "Longitude": "120.8542228",
   "Grade": "不合格",
   "Type": "女廁所",
   "Type2": "市場"
 },
 {
   "Country": "南投縣",
   "City": "水里鄉",
   "Village": "中央村",
   "Name": "水里市場1樓男廁",
   "Address": "",
   "Administration": "水里鄉公所",
   "Latitude": "23.81581984",
   "Longitude": "120.8537775",
   "Grade": "不合格",
   "Type": "男廁所",
   "Type2": "市場"
 },
 {
   "Country": "南投縣",
   "City": "魚池鄉",
   "Village": "日月村",
   "Name": "玄光寺公廁女廁",
   "Address": "日月村中正路388號",
   "Administration": "交通部觀光局日月潭國家風景區管理處",
   "Latitude": "23.85210177",
   "Longitude": "120.913741",
   "Grade": "特優級",
   "Type": "女廁所",
   "Type2": "觀光地區及風景區"
 },
 {
   "Country": "南投縣",
   "City": "魚池鄉",
   "Village": "日月村",
   "Name": "玄光寺公廁男廁",
   "Address": "日月村中正路388號",
   "Administration": "交通部觀光局日月潭國家風景區管理處",
   "Latitude": "23.85212631",
   "Longitude": "120.9137088",
   "Grade": "特優級",
   "Type": "男廁所",
   "Type2": "觀光地區及風景區"
 },
 {
   "Country": "南投縣",
   "City": "魚池鄉",
   "Village": "日月村",
   "Name": "玄光寺大型停車場公廁無障礙廁所",
   "Address": "日月村中正路388號",
   "Administration": "交通部觀光局日月潭國家風景區管理處",
   "Latitude": "23.8521214",
   "Longitude": "120.913108",
   "Grade": "特優級",
   "Type": "無障礙廁所",
   "Type2": "觀光地區及風景區"
 },
 {
   "Country": "南投縣",
   "City": "魚池鄉",
   "Village": "日月村",
   "Name": "玄光寺大型停車場公廁女廁",
   "Address": "日月村中正路388號",
   "Administration": "交通部觀光局日月潭國家風景區管理處",
   "Latitude": "23.85214593",
   "Longitude": "120.9131294",
   "Grade": "特優級",
   "Type": "女廁所",
   "Type2": "觀光地區及風景區"
 },
 {
   "Country": "南投縣",
   "City": "魚池鄉",
   "Village": "日月村",
   "Name": "玄光寺大型停車場公廁男廁",
   "Address": "日月村中正路388號",
   "Administration": "交通部觀光局日月潭國家風景區管理處",
   "Latitude": "23.85213121",
   "Longitude": "120.9131348",
   "Grade": "特優級",
   "Type": "男廁所",
   "Type2": "觀光地區及風景區"
 },
 {
   "Country": "南投縣",
   "City": "魚池鄉",
   "Village": "日月村",
   "Name": "伊達邵停車場公廁無障礙廁所",
   "Address": "南投縣魚池鄉中山路128號",
   "Administration": "交通部觀光局日月潭國家風景區管理處",
   "Latitude": "23.84777929",
   "Longitude": "120.9334981",
   "Grade": "優等級",
   "Type": "無障礙廁所",
   "Type2": "觀光地區及風景區"
 },
 {
   "Country": "南投縣",
   "City": "魚池鄉",
   "Village": "日月村",
   "Name": "伊達邵停車場公廁女廁",
   "Address": "南投縣魚池鄉中山路280號",
   "Administration": "交通部觀光局日月潭國家風景區管理處",
   "Latitude": "23.8477106",
   "Longitude": "120.9335089",
   "Grade": "優等級",
   "Type": "女廁所",
   "Type2": "觀光地區及風景區"
 },
 {
   "Country": "南投縣",
   "City": "魚池鄉",
   "Village": "日月村",
   "Name": "伊達邵停車場公廁男廁",
   "Address": "日月村中正路128號",
   "Administration": "交通部觀光局日月潭國家風景區管理處",
   "Latitude": "23.84774985",
   "Longitude": "120.933466",
   "Grade": "優等級",
   "Type": "男廁所",
   "Type2": "觀光地區及風景區"
 },
 {
   "Country": "南投縣",
   "City": "魚池鄉",
   "Village": "水社村",
   "Name": "蘭園停車場公廁無障礙廁所",
   "Address": "蘭園停車場",
   "Administration": "交通部觀光局日月潭國家風景區管理處",
   "Latitude": "23.86922838",
   "Longitude": "120.9291744",
   "Grade": "特優級",
   "Type": "無障礙廁所",
   "Type2": "觀光地區及風景區"
 },
 {
   "Country": "南投縣",
   "City": "魚池鄉",
   "Village": "水社村",
   "Name": "蘭園停車場公廁女廁",
   "Address": "蘭園停車場",
   "Administration": "交通部觀光局日月潭國家風景區管理處",
   "Latitude": "23.86926272",
   "Longitude": "120.9292066",
   "Grade": "特優級",
   "Type": "女廁所",
   "Type2": "觀光地區及風景區"
 },
 {
   "Country": "南投縣",
   "City": "魚池鄉",
   "Village": "水社村",
   "Name": "蘭園停車場公廁男廁",
   "Address": "魚池蘭園",
   "Administration": "交通部觀光局日月潭國家風景區管理處",
   "Latitude": "23.86928725",
   "Longitude": "120.9291986",
   "Grade": "特優級",
   "Type": "男廁所",
   "Type2": "觀光地區及風景區"
 },
 {
   "Country": "南投縣",
   "City": "水里鄉",
   "Village": "車埕村",
   "Name": "車程火車站無障礙廁所",
   "Address": "南投水里鄉民權2號",
   "Administration": "交通部觀光局日月潭國家風景區管理處",
   "Latitude": "23.83250962",
   "Longitude": "120.8657134",
   "Grade": "特優級",
   "Type": "無障礙廁所",
   "Type2": "觀光地區及風景區"
 },
 {
   "Country": "南投縣",
   "City": "魚池鄉",
   "Village": "水社村",
   "Name": "竹石園女廁",
   "Address": "南投縣魚池鄉水社村中山路8號",
   "Administration": "交通部觀光局日月潭國家風景區管理處",
   "Latitude": "23.87298602",
   "Longitude": "120.918282",
   "Grade": "特優級",
   "Type": "女廁所",
   "Type2": "觀光地區及風景區"
 },
 {
   "Country": "南投縣",
   "City": "魚池鄉",
   "Village": "水社村",
   "Name": "竹石園無障礙廁所",
   "Address": "南投縣魚池鄉水社村中山路8號",
   "Administration": "交通部觀光局日月潭國家風景區管理處",
   "Latitude": "23.87296149",
   "Longitude": "120.9182847",
   "Grade": "特優級",
   "Type": "無障礙廁所",
   "Type2": "觀光地區及風景區"
 },
 {
   "Country": "南投縣",
   "City": "魚池鄉",
   "Village": "水社村",
   "Name": "竹石園男廁",
   "Address": "南投縣魚池鄉水社村中山路8號",
   "Administration": "交通部觀光局日月潭國家風景區管理處",
   "Latitude": "23.87298602",
   "Longitude": "120.9182712",
   "Grade": "特優級",
   "Type": "男廁所",
   "Type2": "觀光地區及風景區"
 },
 {
   "Country": "南投縣",
   "City": "水里鄉",
   "Village": "車埕村",
   "Name": "車程日式宿舍無障礙廁所",
   "Address": "南投水里鄉民權路111號",
   "Administration": "交通部觀光局日月潭國家風景區管理處",
   "Latitude": "23.83314752",
   "Longitude": "120.8649248",
   "Grade": "特優級",
   "Type": "無障礙廁所",
   "Type2": "觀光地區及風景區"
 },
 {
   "Country": "南投縣",
   "City": "水里鄉",
   "Village": "車埕村",
   "Name": "車程日式宿舍女廁",
   "Address": "南投水里鄉民權路111號",
   "Administration": "交通部觀光局日月潭國家風景區管理處",
   "Latitude": "23.83318187",
   "Longitude": "120.8649784",
   "Grade": "特優級",
   "Type": "女廁所",
   "Type2": "觀光地區及風景區"
 },
 {
   "Country": "南投縣",
   "City": "水里鄉",
   "Village": "車埕村",
   "Name": "車程日式宿舍男廁",
   "Address": "南投水里鄉民權路111號",
   "Administration": "交通部觀光局日月潭國家風景區管理處",
   "Latitude": "23.83275006",
   "Longitude": "120.8654505",
   "Grade": "特優級",
   "Type": "男廁所",
   "Type2": "觀光地區及風景區"
 },
 {
   "Country": "南投縣",
   "City": "魚池鄉",
   "Village": "水社村",
   "Name": "向山遊客中心公廁無障礙廁所",
   "Address": "南投縣魚池鄉水社村中山路599號",
   "Administration": "交通部觀光局日月潭國家風景區管理處",
   "Latitude": "23.85173871",
   "Longitude": "120.9023362",
   "Grade": "特優級",
   "Type": "無障礙廁所",
   "Type2": "觀光地區及風景區"
 },
 {
   "Country": "南投縣",
   "City": "魚池鄉",
   "Village": "水社村",
   "Name": "向山遊客中心公廁女廁",
   "Address": "南投縣魚池鄉水社村中山路599號",
   "Administration": "交通部觀光局日月潭國家風景區管理處",
   "Latitude": "23.85171909",
   "Longitude": "120.9023523",
   "Grade": "特優級",
   "Type": "女廁所",
   "Type2": "觀光地區及風景區"
 },
 {
   "Country": "南投縣",
   "City": "魚池鄉",
   "Village": "水社村",
   "Name": "向山遊客中心公廁男廁",
   "Address": "南投縣魚池鄉水社村中山路599號",
   "Administration": "交通部觀光局日月潭國家風景區管理處",
   "Latitude": "23.85175343",
   "Longitude": "120.9023631",
   "Grade": "特優級",
   "Type": "男廁所",
   "Type2": "觀光地區及風景區"
 },
 {
   "Country": "南投縣",
   "City": "魚池鄉",
   "Village": "水社村",
   "Name": "向山行政中心公廁無障礙廁所",
   "Address": "南投縣魚池鄉水社村中山路599號",
   "Administration": "交通部觀光局日月潭國家風景區管理處",
   "Latitude": "23.85174852",
   "Longitude": "120.9023416",
   "Grade": "特優級",
   "Type": "無障礙廁所",
   "Type2": "觀光地區及風景區"
 },
 {
   "Country": "南投縣",
   "City": "魚池鄉",
   "Village": "水社村",
   "Name": "向山行政中心公廁女廁",
   "Address": "南投縣魚池鄉水社村中山路599號",
   "Administration": "交通部觀光局日月潭國家風景區管理處",
   "Latitude": "23.85167493",
   "Longitude": "120.9023845",
   "Grade": "特優級",
   "Type": "男廁所",
   "Type2": "觀光地區及風景區"
 },
 {
   "Country": "南投縣",
   "City": "魚池鄉",
   "Village": "水社村",
   "Name": "向山行政中心公廁男廁",
   "Address": "南投縣魚池鄉水社村中山路599號",
   "Administration": "交通部觀光局日月潭國家風景區管理處",
   "Latitude": "23.85153755",
   "Longitude": "120.9024811",
   "Grade": "特優級",
   "Type": "男廁所",
   "Type2": "觀光地區及風景區"
 },
 {
   "Country": "南投縣",
   "City": "魚池鄉",
   "Village": "水社村",
   "Name": "中興停車場殘障公廁",
   "Address": "南投縣魚池鄉水社村中興路20號",
   "Administration": "交通部觀光局日月潭國家風景區管理處",
   "Latitude": "23.86555893",
   "Longitude": "120.9111929",
   "Grade": "特優級",
   "Type": "無障礙廁所",
   "Type2": "觀光地區及風景區"
 },
 {
   "Country": "南投縣",
   "City": "魚池鄉",
   "Village": "水社村",
   "Name": "日月潭水社遊客中心二樓女廁",
   "Address": "南投縣魚池鄉水社村中山路163號",
   "Administration": "交通部觀光局日月潭國家風景區管理處",
   "Latitude": "23.86642234",
   "Longitude": "120.9110266",
   "Grade": "特優級",
   "Type": "女廁所",
   "Type2": "觀光地區及風景區"
 },
 {
   "Country": "南投縣",
   "City": "魚池鄉",
   "Village": "水社村",
   "Name": "日月潭水社公廁無障礙廁所",
   "Address": "南投縣魚池鄉水社村中山路601號",
   "Administration": "交通部觀光局日月潭國家風景區管理處",
   "Latitude": "23.86633649",
   "Longitude": "120.9111178",
   "Grade": "特優級",
   "Type": "無障礙廁所",
   "Type2": "觀光地區及風景區"
 },
 {
   "Country": "南投縣",
   "City": "水里鄉",
   "Village": "車埕村",
   "Name": "車程木展館出口公廁女廁",
   "Address": "南投水里鄉民權路111號",
   "Administration": "交通部觀光局日月潭國家風景區管理處",
   "Latitude": "23.83379524",
   "Longitude": "120.8658528",
   "Grade": "特優級",
   "Type": "女廁所",
   "Type2": "觀光地區及風景區"
 },
 {
   "Country": "南投縣",
   "City": "水里鄉",
   "Village": "車埕村",
   "Name": "車程木展館出口公廁男廁",
   "Address": "南投水里鄉民權路111號",
   "Administration": "交通部觀光局日月潭國家風景區管理處",
   "Latitude": "23.8339081",
   "Longitude": "120.8658904",
   "Grade": "特優級",
   "Type": "男廁所",
   "Type2": "觀光地區及風景區"
 },
 {
   "Country": "南投縣",
   "City": "水里鄉",
   "Village": "車埕村",
   "Name": "車程木展館入口公廁無障礙廁所",
   "Address": "南投水里鄉民權路111號",
   "Administration": "交通部觀光局日月潭國家風景區管理處",
   "Latitude": "23.83364803",
   "Longitude": "120.8667648",
   "Grade": "特優級",
   "Type": "無障礙廁所",
   "Type2": "觀光地區及風景區"
 },
 {
   "Country": "南投縣",
   "City": "水里鄉",
   "Village": "車埕村",
   "Name": "車程木展館入口公廁女廁",
   "Address": "南投水里鄉民權路111號",
   "Administration": "交通部觀光局日月潭國家風景區管理處",
   "Latitude": "23.83364926",
   "Longitude": "120.8667594",
   "Grade": "特優級",
   "Type": "女廁所",
   "Type2": "觀光地區及風景區"
 },
 {
   "Country": "南投縣",
   "City": "水里鄉",
   "Village": "車埕村",
   "Name": "車程木展館入口公廁男廁",
   "Address": "南投水里鄉民權路111號",
   "Administration": "交通部觀光局日月潭國家風景區管理處",
   "Latitude": "23.83359406",
   "Longitude": "120.8666977",
   "Grade": "特優級",
   "Type": "男廁所",
   "Type2": "觀光地區及風景區"
 },
 {
   "Country": "南投縣",
   "City": "水里鄉",
   "Village": "車埕村",
   "Name": "車程鐵道文化廣場公廁無障礙廁所",
   "Address": "南投水里鄉民權路111號",
   "Administration": "交通部觀光局日月潭國家風景區管理處",
   "Latitude": "23.83364803",
   "Longitude": "120.8667299",
   "Grade": "特優級",
   "Type": "無障礙廁所",
   "Type2": "觀光地區及風景區"
 },
 {
   "Country": "南投縣",
   "City": "魚池鄉",
   "Village": "水社村",
   "Name": "朝霧碼頭公廁無障礙廁所",
   "Address": "南投縣魚池鄉水社村中山路600號",
   "Administration": "交通部觀光局日月潭國家風景區管理處",
   "Latitude": "23.86897084",
   "Longitude": "120.9165251",
   "Grade": "特優級",
   "Type": "無障礙廁所",
   "Type2": "觀光地區及風景區"
 },
 {
   "Country": "南投縣",
   "City": "魚池鄉",
   "Village": "水社村",
   "Name": "朝霧碼頭公廁女廁",
   "Address": "南投縣魚池鄉水社村中山路600號",
   "Administration": "交通部觀光局日月潭國家風景區管理處",
   "Latitude": "23.86897819",
   "Longitude": "120.9165224",
   "Grade": "特優級",
   "Type": "女廁所",
   "Type2": "觀光地區及風景區"
 },
 {
   "Country": "南投縣",
   "City": "魚池鄉",
   "Village": "水社村",
   "Name": "朝霧碼頭公廁男廁",
   "Address": "南投縣魚池鄉水社村中山路600號",
   "Administration": "交通部觀光局日月潭國家風景區管理處",
   "Latitude": "23.86898555",
   "Longitude": "120.9165251",
   "Grade": "特優級",
   "Type": "男廁所",
   "Type2": "觀光地區及風景區"
 },
 {
   "Country": "南投縣",
   "City": "埔里鎮",
   "Village": "南村里",
   "Name": "埔里遊客中心無障礙廁所",
   "Address": "南投縣埔里鎮中山路4段191號",
   "Administration": "交通部觀光局日月潭國家風景區管理處",
   "Latitude": "23.96958757",
   "Longitude": "120.9299362",
   "Grade": "特優級",
   "Type": "無障礙廁所",
   "Type2": "觀光地區及風景區"
 },
 {
   "Country": "南投縣",
   "City": "埔里鎮",
   "Village": "南村里",
   "Name": "埔里遊客中心女廁",
   "Address": "南投縣埔里鎮中山路4段191號",
   "Administration": "交通部觀光局日月潭國家風景區管理處",
   "Latitude": "23.96959933",
   "Longitude": "120.9299179",
   "Grade": "特優級",
   "Type": "女廁所",
   "Type2": "觀光地區及風景區"
 },
 {
   "Country": "南投縣",
   "City": "埔里鎮",
   "Village": "南村里",
   "Name": "埔里遊客中心男廁",
   "Address": "南投縣埔里鎮南村里中山路四段一九一號",
   "Administration": "交通部觀光局日月潭國家風景區管理處",
   "Latitude": "23.96467783",
   "Longitude": "120.9375343",
   "Grade": "特優級",
   "Type": "男廁所",
   "Type2": "觀光地區及風景區"
 },
 {
   "Country": "南投縣",
   "City": "名間鄉",
   "Village": "?下村",
   "Name": "鄉立殯管所第十一公墓-男廁",
   "Address": "南投縣名間鄉?下村鹿鳴巷300號",
   "Administration": "名間鄉殯葬管理所",
   "Latitude": "23.87673374",
   "Longitude": "120.640955",
   "Grade": "特優級",
   "Type": "男廁所",
   "Type2": "公家機關設置供民眾使用者"
 },
 {
   "Country": "南投縣",
   "City": "名間鄉",
   "Village": "?下村",
   "Name": "鄉立殯管所第十一公墓-女廁",
   "Address": "南投縣名間鄉?下村鹿鳴巷300號",
   "Administration": "名間鄉殯葬管理所",
   "Latitude": "23.87665526",
   "Longitude": "120.6390667",
   "Grade": "特優級",
   "Type": "女廁所",
   "Type2": "公家機關設置供民眾使用者"
 },
 {
   "Country": "南投縣",
   "City": "名間鄉",
   "Village": "濁水村",
   "Name": "鄉立殯管所第一公墓(下方)-男廁",
   "Address": "南投縣名間鄉員集路34-8號",
   "Administration": "名間鄉殯葬管理所",
   "Latitude": "23.83662161",
   "Longitude": "120.7136536",
   "Grade": "特優級",
   "Type": "男廁所",
   "Type2": "公家機關設置供民眾使用者"
 },
 {
   "Country": "南投縣",
   "City": "名間鄉",
   "Village": "濁水村",
   "Name": "鄉立殯管所第一公墓(下方)-女廁",
   "Address": "南投縣名間鄉員集路34-8號",
   "Administration": "名間鄉殯葬管理所",
   "Latitude": "23.84305923",
   "Longitude": "120.7167435",
   "Grade": "特優級",
   "Type": "女廁所",
   "Type2": "公家機關設置供民眾使用者"
 },
 {
   "Country": "南投縣",
   "City": "名間鄉",
   "Village": "濁水村",
   "Name": "鄉立殯管所第一公墓(上方)-男廁",
   "Address": "南投縣名間鄉員集路32-1號",
   "Administration": "名間鄉殯葬管理所",
   "Latitude": "23.84298072",
   "Longitude": "120.7297039",
   "Grade": "特優級",
   "Type": "男廁所",
   "Type2": "公家機關設置供民眾使用者"
 },
 {
   "Country": "南投縣",
   "City": "名間鄉",
   "Village": "濁水村",
   "Name": "鄉立殯管所第一公墓(上方)-女廁",
   "Address": "南投縣名間鄉員集路32-1號",
   "Administration": "名間鄉殯葬管理所",
   "Latitude": "23.8440798",
   "Longitude": "120.7278156",
   "Grade": "特優級",
   "Type": "女廁所",
   "Type2": "公家機關設置供民眾使用者"
 },
 {
   "Country": "南投縣",
   "City": "名間鄉",
   "Village": "松柏村",
   "Name": "松柏嶺遊客中心-無障礙(親子)廁所",
   "Address": "名間鄉名松路2段181號",
   "Administration": "松柏嶺遊客中心",
   "Latitude": "23.83324566",
   "Longitude": "120.6360626",
   "Grade": "特優級",
   "Type": "無障礙廁",
   "Type2": "公家機關設置供民眾使用者"
 },
 {
   "Country": "南投縣",
   "City": "名間鄉",
   "Village": "松柏村",
   "Name": "松柏嶺遊客中心-男廁",
   "Address": "名間鄉名松路2段181號",
   "Administration": "松柏嶺遊客中心",
   "Latitude": "23.83301013",
   "Longitude": "120.6365776",
   "Grade": "特優級",
   "Type": "男廁",
   "Type2": "公家機關設置供民眾使用者"
 },
 {
   "Country": "南投縣",
   "City": "名間鄉",
   "Village": "松柏村",
   "Name": "松柏嶺遊客中心-女廁",
   "Address": "名間鄉名松路2段181號",
   "Administration": "松柏嶺遊客中心",
   "Latitude": "23.83277459",
   "Longitude": "120.6366634",
   "Grade": "特優級",
   "Type": "女廁",
   "Type2": "公家機關設置供民眾使用者"
 },
 {
   "Country": "南投縣",
   "City": "國姓鄉",
   "Village": "柑林村",
   "Name": "國姓鄉農會一樓殘障廁所",
   "Address": "",
   "Administration": "國姓鄉農會",
   "Latitude": "24.02732269",
   "Longitude": "120.8419061",
   "Grade": "優等級",
   "Type": "男廁",
   "Type2": "民眾團體活動場所"
 },
 {
   "Country": "南投縣",
   "City": "國姓鄉",
   "Village": "柑林村",
   "Name": "國姓鄉農會一樓女廁",
   "Address": "",
   "Administration": "國姓鄉農會",
   "Latitude": "24.02182523",
   "Longitude": "120.8448136",
   "Grade": "優等級",
   "Type": "女廁",
   "Type2": "民眾團體活動場所"
 },
 {
   "Country": "南投縣",
   "City": "國姓鄉",
   "Village": "柑林村",
   "Name": "國姓鄉農會一樓男廁",
   "Address": "",
   "Administration": "國姓鄉農會",
   "Latitude": "24.10805738",
   "Longitude": "120.91115",
   "Grade": "優等級",
   "Type": "男廁",
   "Type2": "民眾團體活動場所"
 },
 {
   "Country": "屏東縣",
   "City": "恆春鎮",
   "Village": "大光里",
   "Name": "台灣電力公司第三核能發電廠南部展示館副館二樓混合廁",
   "Address": "屏東縣恆春鎮大光里大光路七九之六四號",
   "Administration": "台灣電力公司第三核能發電廠南部展示館",
   "Latitude": "21.94601634",
   "Longitude": "120.7425531",
   "Grade": "特優級",
   "Type": "混合廁所",
   "Type2": "公營事業機構設置供民眾使用者及其他"
 },
 {
   "Country": "屏東縣",
   "City": "恆春鎮",
   "Village": "大光里",
   "Name": "台灣電力公司第三核能發電廠南部展示館副館一樓混合廁",
   "Address": "屏東縣恆春鎮大光里大光路七九之六四號",
   "Administration": "台灣電力公司第三核能發電廠南部展示館",
   "Latitude": "21.94649137",
   "Longitude": "120.7423191",
   "Grade": "特優級",
   "Type": "混合廁所",
   "Type2": "公營事業機構設置供民眾使用者及其他"
 },
 {
   "Country": "屏東縣",
   "City": "恆春鎮",
   "Village": "大光里",
   "Name": "台灣電力公司第三核能發電廠南部展示館主館二樓西側混合廁",
   "Address": "屏東縣恆春鎮大光里大光路七九之六四號",
   "Administration": "台灣電力公司第三核能發電廠南部展示館",
   "Latitude": "21.94651571",
   "Longitude": "120.7389053",
   "Grade": "特優級",
   "Type": "混合廁所",
   "Type2": "公營事業機構設置供民眾使用者及其他"
 },
 {
   "Country": "屏東縣",
   "City": "春日鄉",
   "Village": "力里村",
   "Name": "力里集會所混合廁",
   "Address": "屏東縣春日鄉力里村圓山路三七號",
   "Administration": "春日鄉公所清潔隊",
   "Latitude": "22.43295663",
   "Longitude": "120.6474513",
   "Grade": "優等級",
   "Type": "混合廁",
   "Type2": "民眾團體活動場所"
 },
 {
   "Country": "屏東縣",
   "City": "春日鄉",
   "Village": "春日村",
   "Name": "春日鄉集會所女廁",
   "Address": "屏東縣春日鄉春日村春日路二八號",
   "Administration": "春日鄉公所清潔隊",
   "Latitude": "22.37022024",
   "Longitude": "120.6239954",
   "Grade": "優等級",
   "Type": "女廁",
   "Type2": "民眾團體活動場所"
 },
 {
   "Country": "屏東縣",
   "City": "春日鄉",
   "Village": "春日村",
   "Name": "春日集會所男廁",
   "Address": "屏東縣春日鄉春日村春日路二八號",
   "Administration": "春日鄉公所清潔隊",
   "Latitude": "22.37022024",
   "Longitude": "120.623998",
   "Grade": "優等級",
   "Type": "男廁",
   "Type2": "民眾團體活動場所"
 },
 {
   "Country": "屏東縣",
   "City": "泰武鄉",
   "Village": "佳興村",
   "Name": "佳興村村辦公室",
   "Address": "屏東縣泰武鄉佳興村二八號",
   "Administration": "泰武鄉鄉公所",
   "Latitude": "22.5665429",
   "Longitude": "120.6669617",
   "Grade": "優等級",
   "Type": "混合廁",
   "Type2": "民眾團體活動場所"
 },
 {
   "Country": "屏東縣",
   "City": "泰武鄉",
   "Village": "佳興村",
   "Name": "佳興村集會所混合廁",
   "Address": "屏東縣泰武鄉佳興村二八號",
   "Administration": "佳興村集會所",
   "Latitude": "22.5665429",
   "Longitude": "120.6669617",
   "Grade": "優等級",
   "Type": "混合廁",
   "Type2": "民眾團體活動場所"
 },
 {
   "Country": "屏東縣",
   "City": "泰武鄉",
   "Village": "佳平村",
   "Name": "佳平村馬仕部落公廁混合廁",
   "Address": "屏東縣泰武鄉佳平村佳平巷一八號",
   "Administration": "泰武鄉公所",
   "Latitude": "22.5919827",
   "Longitude": "120.6291103",
   "Grade": "優等級",
   "Type": "混合廁",
   "Type2": "民眾團體活動場所"
 },
 {
   "Country": "屏東縣",
   "City": "南州鄉",
   "Village": "壽元村",
   "Name": "南州全家壽元店",
   "Address": "屏東縣南州鄉壽元村勝利路五之一○號",
   "Administration": "南州全家壽元店",
   "Latitude": "22.4913849",
   "Longitude": "120.5338383",
   "Grade": "優等級",
   "Type": "混合廁",
   "Type2": "超市"
 },
 {
   "Country": "屏東縣",
   "City": "南州鄉",
   "Village": "壽元村",
   "Name": "7-11南州壽元門市",
   "Address": "屏東縣南州鄉壽元村勝利路五之一五號",
   "Administration": "7-11南州壽元門市",
   "Latitude": "22.48956094",
   "Longitude": "120.5340099",
   "Grade": "優等級",
   "Type": "混合廁",
   "Type2": "超市"
 },
 {
   "Country": "屏東縣",
   "City": "九如鄉",
   "Village": "東寧村",
   "Name": "國光客運九如站混合廁",
   "Address": "屏東縣九如鄉東寧村九如路二段二七○號",
   "Administration": "國光客運九如站",
   "Latitude": "22.736822",
   "Longitude": "120.4893605",
   "Grade": "優等級",
   "Type": "混合廁",
   "Type2": "公路車站服務區及休息站"
 },
 {
   "Country": "屏東縣",
   "City": "麟洛鄉",
   "Village": "麟蹄村",
   "Name": "國光客運麟洛站混合測",
   "Address": "屏東縣麟洛鄉麟蹄村中山路六六號",
   "Administration": "國光客運麟洛站",
   "Latitude": "22.64806143",
   "Longitude": "120.5294394",
   "Grade": "優等級",
   "Type": "混合廁",
   "Type2": "公路車站服務區及休息站"
 },
 {
   "Country": "屏東縣",
   "City": "三地門鄉",
   "Village": "德文村",
   "Name": "德萊公園混合廁",
   "Address": "屏東縣三地門鄉德文村",
   "Administration": "三地門鄉公所清潔隊",
   "Latitude": "22.75049882",
   "Longitude": "120.68151",
   "Grade": "優等級",
   "Type": "混合廁",
   "Type2": "公園"
 },
 {
   "Country": "屏東縣",
   "City": "三地門鄉",
   "Village": "三地村",
   "Name": "地磨兒公園流動公廁",
   "Address": "屏東縣三地門鄉三地村中正路二段",
   "Administration": "三地門鄉公所清潔隊",
   "Latitude": "22.71829465",
   "Longitude": "120.6555891",
   "Grade": "優等級",
   "Type": "混合廁",
   "Type2": "公園"
 },
 {
   "Country": "屏東縣",
   "City": "新園鄉",
   "Village": "內庄村",
   "Name": "台灣中油新園加油站混合廁",
   "Address": "屏東縣新園鄉內庄村興安路五四號",
   "Administration": "台灣中油新園加油站",
   "Latitude": "22.52411299",
   "Longitude": "120.4635108",
   "Grade": "特優級",
   "Type": "混合廁",
   "Type2": "加油站"
 },
 {
   "Country": "屏東縣",
   "City": "來義鄉",
   "Village": "文樂村",
   "Name": "文樂村聚會所混合廁",
   "Address": "屏東縣來義鄉文樂村文樂國小旁",
   "Administration": "來義鄉公所清潔隊",
   "Latitude": "22.52080287",
   "Longitude": "120.6373501",
   "Grade": "優等級",
   "Type": "混合廁",
   "Type2": "民眾團體活動場所"
 },
 {
   "Country": "屏東縣",
   "City": "來義鄉",
   "Village": "丹林村",
   "Name": "喜樂發發吾公園混合廁",
   "Address": "屏東縣來義鄉丹林村古義路一八號",
   "Administration": "來義鄉公所清潔隊",
   "Latitude": "22.52756177",
   "Longitude": "120.6523919",
   "Grade": "優等級",
   "Type": "混合廁",
   "Type2": "公園"
 },
 {
   "Country": "屏東縣",
   "City": "枋寮鄉",
   "Village": "保生村",
   "Name": "枋寮漁港混合廁",
   "Address": "屏東縣枋寮鄉保生村保生路四三七號",
   "Administration": "枋寮區漁會",
   "Latitude": "22.36320065",
   "Longitude": "120.5942416",
   "Grade": "優等級",
   "Type": "混合廁",
   "Type2": "港區"
 },
 {
   "Country": "屏東縣",
   "City": "枋寮鄉",
   "Village": "新龍村",
   "Name": "台灣中油枋寮站",
   "Address": "屏東縣枋寮鄉新龍村中山路三一九號",
   "Administration": "台灣中油枋寮站",
   "Latitude": "22.3709321",
   "Longitude": "120.5920959",
   "Grade": "優等級",
   "Type": "混合廁",
   "Type2": "加油站"
 },